station_code,station_name,aquamonitor_id,longitude,latitude,area_km2,min_runoff_mm/yr,max_runoff_mm/yr,mean_runoff_mm/yr,count_runoff_mm/yr,std_runoff_mm/yr,median_runoff_mm/yr,percentile_25_runoff_mm/yr,percentile_75_runoff_mm/yr
221-1-2,Langtjern,26070,11.8506102053126,59.8099151426289,0.4264,518.0,532.0,525.0,4,5.0,525.0,521.0,529.0
101-2-7,Hokksjøen,26071,11.5599461927895,59.0051247540158,5.5007,610.0,703.0,667.0,14,26.0,668.0,654.0,688.0
402-2-13,Sætertjern,26072,12.4436697024394,60.0577714148464,1.5721,454.0,531.0,493.0,6,27.0,493.0,471.0,515.0
419-1-25,Mjøgsjøen,26073,11.8452761296037,60.3320346212822,1.0183,479.0,509.0,492.0,3,13.0,488.0,483.0,499.0
425-2-2,Kottern,26074,12.5119937092359,60.5873185563547,2.1266,465.0,558.0,497.0,7,29.0,494.0,476.0,506.0
432-1-26,Måsabutjørna,26075,11.1860257957062,61.8205797880501,0.4003,546.0,583.0,563.0,3,15.0,560.0,553.0,572.0
436-1-7,HOH 1066,26076,11.1376999886352,62.234991969951,0.196,559.0,559.0,559.0,1,0.0,559.0,559.0,559.0
438-1-13,Brennvoltjørna,26077,10.7805674516123,61.9827820828669,0.6501,449.0,531.0,489.0,4,29.0,487.0,472.0,504.0
512-1-26,HOH 1374,26078,9.07780028548882,62.3262043593914,0.359,865.0,1075.0,1010.0,4,85.0,1049.0,993.0,1066.0
512-2-7,Kjelsungvatnet,26079,9.14888627582275,62.2354961749407,18.4494,615.0,1020.0,828.0,33,109.0,850.0,756.0,911.0
513-2-18,Nedre Søvertjørni,26080,7.69928335299551,61.8604451898515,15.5976,1010.0,1719.0,1268.0,29,180.0,1230.0,1134.0,1359.0
513-3-14,Liavatnet,26081,7.7655451025245,61.8635866372538,210.7388,972.0,2393.0,1597.0,256,325.0,1657.0,1336.0,1855.0
514-2-16,Skuggevatnet,26082,7.99466786269791,61.5926484025741,3.3301,1486.0,1663.0,1583.0,10,69.0,1612.0,1504.0,1644.0
538-1-33,Høgkampvatnet,26083,9.81463963221239,61.0664508359851,0.3099,838.0,944.0,891.0,2,53.0,891.0,864.0,917.0
545-1-15,HOH 1398,26085,8.46455743652935,61.1986131057354,0.5961,912.0,943.0,925.0,4,13.0,924.0,913.0,936.0
604-1-7,Korstjernet,26086,9.63358292542722,59.5239514820368,0.3449,1132.0,1178.0,1162.0,3,21.0,1176.0,1154.0,1177.0
604-3-3,Hengsvatnet,26087,9.44224495408487,59.6539588282726,21.5317,566.0,731.0,649.0,37,49.0,652.0,604.0,689.0
807-1-71,Surtetjørn,26088,9.1288416008768,59.770518428724,3.8571,666.0,1054.0,787.0,11,110.0,751.0,702.0,837.0
817-1-10,Vihusvatnet,26089,8.88603046368322,59.0772079330734,0.2863,869.0,890.0,879.0,2,10.0,879.0,874.0,884.0
829-1-13,Mjåvatn,26090,8.26277838649925,59.3090240755202,0.9564,793.0,857.0,826.0,4,26.0,826.0,804.0,847.0
830-1-24,Store Kleivtjørn,26091,8.65267708166301,59.0242506981368,0.8652,779.0,829.0,806.0,5,19.0,811.0,790.0,820.0
833-2-21,Folurdkaldevatn,26092,7.60015796268927,59.3865156771687,2.4611,1308.0,1397.0,1361.0,7,28.0,1361.0,1347.0,1383.0
834-1-12,Hemletjørnane,26093,7.54505206692548,59.6096818606859,21.4266,1122.0,1793.0,1484.0,37,172.0,1480.0,1390.0,1630.0
834-1-32,HOH 1394,26094,7.96063779573449,59.935892757496,0.5683,1262.0,1325.0,1296.0,4,23.0,1298.0,1285.0,1309.0
928-1-7,Lundevatnet,26095,8.21745394237936,58.4625868542682,3.5632,1225.0,1235.0,1231.0,9,4.0,1232.0,1226.0,1235.0
928-2-20,Lille Hovvatnet,26096,8.0308573506426,58.6060108619034,1.0682,1312.0,1391.0,1361.0,6,27.0,1364.0,1351.0,1383.0
940-2-9,HOH 1227,26098,7.09879520487891,59.1849404427463,4.6603,2463.0,2725.0,2616.0,12,86.0,2642.0,2559.0,2689.0
941-2-23,Reinsgrovtjørnane,26099,7.00031682301533,59.3403365021126,2.5538,2186.0,2257.0,2229.0,8,27.0,2242.0,2209.0,2250.0
1003-2-4,Saudlandsvatnet,26100,6.76753672554633,58.2007632668188,4.6156,1666.0,1727.0,1703.0,11,20.0,1705.0,1691.0,1722.0
1004-1-34,Store Einervann/HOH 230,26101,6.57911605673276,58.3104616155769,0.7063,2255.0,2343.0,2292.0,5,31.0,2293.0,2263.0,2305.0
1014-1-32,Krossvatnet,26102,7.78653556794165,58.2446518570464,0.634,1341.0,1351.0,1346.0,4,5.0,1346.0,1342.0,1350.0
1032-1-19,Svartevatnet,26103,7.08411361913496,58.2764674349431,4.2175,1900.0,2042.0,1967.0,10,42.0,1968.0,1944.0,1998.0
1037-1-1,Lisle Frøysvatnet,26104,7.10648046581649,58.3021621850618,0.4243,2040.0,2109.0,2075.0,4,25.0,2075.0,2059.0,2091.0
1046-1-23,Bergetjørni,26105,6.89943188945471,59.015816600513,0.4348,1688.0,1731.0,1712.0,4,18.0,1714.0,1697.0,1729.0
1114-1-20,Skjelbreidtjørni,26106,6.18412798004005,58.7231178184775,1.0914,2353.0,2432.0,2381.0,5,31.0,2365.0,2354.0,2402.0
1114-1-34,Lomstjørni,26107,6.08464959422335,58.6739138989476,3.0062,1833.0,2056.0,1922.0,9,75.0,1903.0,1853.0,1993.0
1122-1-9,Kråtjørni,26108,6.11255030558405,58.739981598915,1.7311,2204.0,2428.0,2320.0,4,88.0,2323.0,2253.0,2390.0
1129-1-13,Tvaravatnet,26109,6.31107194250917,59.0394066797937,0.2669,2609.0,2806.0,2741.0,4,78.0,2775.0,2728.0,2789.0
1201-1-23,Knappatjørna,26110,5.26347180644182,60.3273137580868,0.2671,2094.0,2130.0,2112.0,2,18.0,2112.0,2103.0,2121.0
1201-1-32,Brekkevatnet,26111,5.59149713803448,60.3455193560566,0.2345,3436.0,3761.0,3629.0,4,125.0,3659.0,3564.0,3724.0
1228-1-16,1230 HOH,26112,7.02112068476448,59.776438075162,0.8879,2578.0,2804.0,2708.0,4,89.0,2726.0,2650.0,2784.0
1228-2-4,Øvre Juklevatni,26113,7.01687650859628,60.0617068120966,3.1757,1844.0,2255.0,2016.0,11,133.0,1989.0,1907.0,2125.0
1231-1-41,HOH 1092,26114,6.49123157704738,60.2941000219955,3.3617,2758.0,2972.0,2868.0,10,69.0,2846.0,2830.0,2937.0
1235-1-6,Rundatjørni,26115,6.30217373522905,60.5710601606449,0.3616,2522.0,3021.0,2724.0,4,183.0,2677.0,2637.0,2765.0
1263-3-10,Husdalsvatnet,26116,5.49462060013147,60.6354839101759,8.5389,2835.0,3867.0,3165.0,18,288.0,3090.0,2957.0,3220.0
1266-1-25,Stemmevatnet,26117,5.32516116934407,60.8619402162505,0.1649,3199.0,3296.0,3248.0,2,48.0,3248.0,3223.0,3272.0
1266-1-43,HOH 816,26118,5.81279002662846,60.9299194899709,3.781,3757.0,4374.0,4065.0,13,202.0,4105.0,3839.0,4253.0
1401-1-35,Rundedalsvatnet,26119,5.20185969267551,61.6631403227798,0.653,3639.0,3949.0,3782.0,4,111.0,3770.0,3720.0,3832.0
1411-2-17,Holmevatnet,26120,5.39735838813455,60.9713993006862,0.496,3901.0,3966.0,3935.0,4,23.0,3937.0,3928.0,3945.0
1411-2-34,Botnavatnet,26121,5.3950090879743,60.9859585923981,1.5353,3834.0,4389.0,3999.0,5,199.0,3935.0,3901.0,3937.0
1416-2-6,Blåfjellvatnet,26122,5.76583266294955,61.0233736015267,1.3663,2958.0,3074.0,3021.0,6,35.0,3021.0,3015.0,3035.0
1421-1-34,HOH 1530,26123,7.63962475805021,60.8545058518727,0.8279,1540.0,1780.0,1614.0,4,98.0,1568.0,1541.0,1642.0
1426-2-29,Krongeltjørni,26124,7.93039096595436,61.5685762961678,0.4737,1662.0,1696.0,1675.0,4,14.0,1672.0,1664.0,1683.0
1429-3-22,Langesjøen,26125,5.16425265659496,61.2797456596875,8.3379,2446.0,2893.0,2681.0,18,110.0,2669.0,2613.0,2750.0
1432-2-20,Steinbotsvatna,26126,6.4055361634645,61.3537411771611,14.9177,2582.0,3285.0,2961.0,29,118.0,2987.0,2882.0,3015.0
1433-1-30,Einevollsvatnet,26127,5.58193865139987,61.4796822459681,2.7161,2805.0,2898.0,2854.0,8,29.0,2857.0,2837.0,2874.0
1534-2-5,St. Hestevatn,26128,6.40180160270607,62.5931988727053,3.5405,2151.0,2318.0,2248.0,10,53.0,2248.0,2219.0,2294.0
1539-3-3,Ulvådalsvatnet,26129,7.91235309459286,62.2454382425503,101.7443,812.0,1886.0,1296.0,136,251.0,1292.0,1090.0,1509.0
1543-2-8,Røndalskarvatn,26130,8.07920441273034,62.6103683204659,6.9918,1803.0,2422.0,2089.0,14,215.0,2030.0,1901.0,2313.0
1566-2-19,HOH 1078,26131,8.99099617385894,62.7476979150966,2.0811,1763.0,2085.0,1921.0,7,105.0,1872.0,1858.0,2005.0
1622-2-4,Austvatnet,26133,9.7461930717893,63.4122300021566,13.9396,1110.0,1489.0,1293.0,29,95.0,1285.0,1229.0,1369.0
1640-2-18,Skebrosjøane,26134,12.1625927587531,62.4051085053704,4.3212,401.0,470.0,443.0,11,18.0,442.0,437.0,452.0
1718-1-3,Hyttvatnet,26135,10.5286440918313,63.7478096913667,0.2576,1573.0,1678.0,1627.0,3,43.0,1629.0,1601.0,1653.0
1736-3-4,Snaufjellvatnet,26136,13.1541264225788,64.1916940034456,6.5491,1281.0,1507.0,1369.0,15,71.0,1344.0,1312.0,1419.0
1738-3-9,Midtre Blåfjellvatnet,26137,13.5400182555295,64.1155371435143,50.5667,934.0,1671.0,1257.0,67,164.0,1212.0,1128.0,1354.0
1751-2-11,Grønlivatnet,26138,11.9992516210882,64.8718890318998,3.5425,2079.0,2378.0,2236.0,11,79.0,2228.0,2211.0,2274.0
1851-2-13,Trollvatnet,26139,15.6079862821763,68.3656676792037,0.7629,1836.0,2150.0,2007.0,4,117.0,2021.0,1938.0,2090.0
1929-2-13,Daudmannsvatn,26140,17.4059311163758,69.330985843652,5.287,1942.0,2212.0,2072.0,11,84.0,2068.0,2002.0,2142.0
2011-1-13,HOH 510,26141,23.7033484806321,68.8681467853392,0.4296,444.0,454.0,449.0,3,4.0,449.0,447.0,451.0
2011-1-29,HOH 407,26142,24.4007270429175,68.8773195314931,0.2833,293.0,371.0,335.0,3,32.0,343.0,318.0,357.0
2011-1-60,HOH 414,26143,23.4544004878611,69.0464410149078,0.2981,363.0,363.0,363.0,1,0.0,363.0,363.0,363.0
2011-2-34,Guolehisjavri,26144,22.2687443638187,68.9110504394135,1.9844,386.0,431.0,406.0,6,17.0,400.0,395.0,420.0
2020-2-30,HOH 515,26145,25.3900841918544,70.1664407669372,1.373,724.0,891.0,833.0,6,52.0,844.0,832.0,860.0
2022-1-42,HOH 292,26146,27.4221436044761,70.7342568717137,1.5304,981.0,1050.0,1016.0,6,26.0,1017.0,994.0,1040.0
2022-1-45,HOH 561,26147,26.7269225350736,70.1634171642559,0.7554,766.0,815.0,795.0,4,21.0,799.0,780.0,814.0
2025-1-57,HOH 450,26149,28.7918398886113,70.5425336326835,3.2166,826.0,895.0,865.0,10,19.0,870.0,859.0,877.0
831-501,Brårvatn,26150,7.7260021266652,59.2928806446639,4.0297,1157.0,1255.0,1208.0,10,32.0,1212.0,1178.0,1229.0
1640-603,Tufsingen,26151,11.8759029736546,62.6106651578369,4.8659,479.0,712.0,558.0,12,68.0,548.0,500.0,577.0
1228-501,Steinavatn,26152,6.57995021546729,59.8545141693148,4.2538,3152.0,3584.0,3417.0,9,155.0,3512.0,3284.0,3564.0
1018-4,Kleivsetvannet,26153,7.67717371130857,58.1091918771752,17.8258,1409.0,1595.0,1510.0,35,53.0,1515.0,1461.0,1552.0
1840-601,Kjemåvatn,26154,15.409438719011,66.7682711445406,36.4712,825.0,1456.0,1173.0,57,163.0,1185.0,1050.0,1310.0
429-601,Holmsjøen,26155,11.6214056818289,61.1490042666345,4.959,528.0,625.0,571.0,12,27.0,570.0,551.0,584.0
1725-3-14,Bjørfarvatnet,26156,10.9848965233555,64.2762379867915,3.6315,1514.0,1862.0,1651.0,10,90.0,1641.0,1597.0,1663.0
101-2-2,Steinsvatnet,26157,11.6527237053203,59.1000717120539,4.3309,601.0,628.0,616.0,11,7.0,617.0,612.0,620.0
101-4-1,Femsjøen,26158,11.4447098899549,59.1271408865578,1573.3681,206.0,655.0,507.0,1778,76.0,513.0,468.0,552.0
105-3-6,Isesjøen,26159,11.238319741201,59.298750602071,139.957,211.0,586.0,509.0,182,45.0,517.0,501.0,534.0
105-3-10,Tunevatnet,26160,11.0959134869238,59.3188347236257,6.5469,410.0,564.0,530.0,15,42.0,543.0,529.0,558.0
118-1-7,Lilledalstjernet,26161,11.6898254359155,59.2442373509217,0.7321,344.0,576.0,505.0,6,75.0,527.0,512.0,545.0
118-1-39,Ekertjernet,26162,11.7423256761422,59.3056149241498,1.1031,500.0,552.0,519.0,5,19.0,514.0,502.0,528.0
119-1-2,Hølevatnet,26163,11.660398725416,59.6087869636463,0.4798,491.0,506.0,499.0,2,8.0,499.0,495.0,502.0
119-2-81,Nordre Torgrimsbutjern,26164,11.7699108696026,59.3513677213814,1.8725,485.0,544.0,508.0,6,23.0,499.0,490.0,525.0
119-4-3,Rødenessjøen,26165,11.6509593543392,59.4831677147969,1007.6062,206.0,646.0,476.0,1134,70.0,485.0,444.0,521.0
128-1-4,Stomperudtjernet,26166,11.4042880023564,59.3214494951174,3.6559,277.0,513.0,411.0,11,95.0,481.0,309.0,499.0
137-3-1,Sæbyvatnet,26168,10.9735816814163,59.4290625779328,93.7456,561.0,687.0,631.0,125,31.0,634.0,608.0,654.0
217-3-1,Gjersjøen,26169,10.7768924297407,59.8082603670725,80.6664,299.0,569.0,482.0,113,47.0,485.0,465.0,512.0
220-2-9,Bondivatnet,26170,10.4373438837967,59.8173657437307,35.184,546.0,870.0,764.0,58,71.0,778.0,726.0,814.0
221-1-6,Lombergtjern,26171,11.6183293305432,59.736942288249,1.6522,431.0,505.0,460.0,6,23.0,455.0,446.0,467.0
221-1-9,Lembruvatna,26172,11.8405999711525,59.8418896865841,7.533,482.0,527.0,507.0,18,15.0,511.0,492.0,519.0
221-3-2,Floen,26173,11.5085154611869,59.982400683095,41.8305,465.0,572.0,501.0,66,22.0,500.0,485.0,514.0
227-2-1,Heia,26174,11.2137418095376,59.9275356606149,17.3228,470.0,529.0,502.0,33,15.0,502.0,491.0,511.0
231-2-5,Tretjernet,26175,11.1304789636616,59.9878679880429,0.6127,479.0,538.0,517.0,5,21.0,520.0,511.0,535.0
235-1-3,Sesvolltjernet,26176,11.1651748593392,60.2496232718642,2.0604,470.0,513.0,489.0,6,17.0,485.0,474.0,502.0
236-1-12,Djuptjern,26177,11.5426121113534,60.0225974160082,0.5658,509.0,518.0,516.0,4,4.0,518.0,516.0,518.0
236-2-4,Flasjøen,26178,11.7623160922917,60.0949383699038,19.8674,427.0,546.0,493.0,31,34.0,496.0,464.0,521.0
239-1-186,Buråstjern,26179,11.0332926516701,60.4292233581434,4.4869,586.0,680.0,636.0,12,29.0,643.0,616.0,660.0
239-2-3,Bundlitjernet,26180,11.1086438271369,60.429210663977,0.7259,614.0,633.0,622.0,4,7.0,621.0,617.0,626.0
239-2-10,Holtjernet,26181,11.0962627279355,60.4714136011444,1.6499,579.0,610.0,598.0,6,10.0,599.0,598.0,603.0
239-4-3,Hurdalsjøen,26182,11.1607157628663,60.2977432346315,587.836,364.0,860.0,649.0,693,72.0,649.0,607.0,694.0
301-1-1,Steinsrudtjern,26183,10.867860779312,59.821658466451,1.4013,438.0,470.0,457.0,4,12.0,460.0,452.0,465.0
301-2-1,Rottungen,26184,10.720638314646,60.0487564684818,4.1137,932.0,1036.0,983.0,10,34.0,981.0,954.0,1011.0
301-3-1,Helgeren,26185,10.7092083807613,60.0726206070109,14.9143,786.0,974.0,901.0,30,51.0,902.0,867.0,941.0
402-1-28,Eintjern,26186,12.3661033717618,60.072388392562,3.0701,426.0,466.0,447.0,10,15.0,449.0,431.0,460.0
412-1-20,Kinnlitjernet,26190,10.8114452530412,60.8865964332488,1.0642,247.0,491.0,433.0,5,93.0,474.0,461.0,491.0
412-1-22,Ørtjernet,26191,11.1143112143436,61.0129432613716,0.7486,634.0,679.0,664.0,4,17.0,672.0,661.0,675.0
412-3-4,Sjusjøen,26192,10.712878634619,61.1427851426355,64.1602,629.0,934.0,834.0,94,53.0,848.0,809.0,870.0
412-5-1,Mjøsa,26193,11.2363286191171,60.3976914911794,16529.795,32.0,2409.0,683.0,17303,359.0,584.0,459.0,785.0
418-1-4,Vesle Otten,26194,11.3660876382452,60.4546185554114,5.7354,517.0,572.0,546.0,14,16.0,545.0,532.0,553.0
418-1-14,Geittjerna,26195,11.5700270742123,60.4687628945745,6.1167,482.0,551.0,526.0,13,21.0,528.0,516.0,543.0
418-2-3,Tennungen,26196,11.436994911941,60.3518696071504,8.5033,499.0,583.0,532.0,17,22.0,529.0,516.0,542.0
419-1-23,Svarttjernet,26197,11.7048019268145,60.2964813035627,0.5234,356.0,372.0,363.0,3,7.0,361.0,358.0,366.0
419-2-8,Igletjernet,26198,11.7054859404863,60.2761629591887,1.8156,341.0,372.0,355.0,6,11.0,354.0,347.0,365.0
423-1-21,Langtjernet,26200,12.4121192311791,60.457541417407,1.8937,402.0,465.0,428.0,7,19.0,430.0,416.0,435.0
423-3-14,Rotnesjøen,26201,12.3515582867927,60.4773441559351,87.8215,352.0,524.0,425.0,115,40.0,422.0,396.0,453.0
425-1-15,Kalbråtåsjøen,26202,12.3331502890527,60.5485064656039,19.3912,365.0,524.0,436.0,34,44.0,423.0,398.0,474.0
425-2-10,Steinsjøen,26203,12.2596781464814,60.8218151420737,13.8393,467.0,560.0,495.0,27,22.0,490.0,481.0,503.0
425-2-25,Knapptjernet,26204,12.126482722089,60.5833030729479,9.2095,304.0,349.0,323.0,20,13.0,321.0,312.0,332.0
426-3-1,Vålmangen,26205,11.7901648089578,60.5877620488379,57.5725,540.0,733.0,638.0,80,48.0,641.0,597.0,668.0
427-3-12,Svenkebekksjøen,26206,11.970611336838,60.8539249273538,103.259,438.0,624.0,501.0,137,43.0,497.0,471.0,518.0
428-2-15,Mjølsjøen,26207,12.1963569861477,61.5680566498042,7.4551,761.0,911.0,847.0,18,45.0,858.0,817.0,876.0
430-2-1,Setningsjøen,26209,10.2732487362366,61.7550946398696,146.5583,458.0,892.0,654.0,190,108.0,668.0,548.0,735.0
430-2-16,Gråtjørna,26210,10.5754708685574,61.8558730534007,0.4552,479.0,503.0,488.0,3,11.0,481.0,480.0,492.0
432-1-2,Langtjørna,26211,11.2815082459116,61.5383299687103,0.8267,442.0,491.0,469.0,4,20.0,471.0,454.0,487.0
432-1-10,Byringtjørna,26212,11.4439242019017,61.4838217637697,1.5285,524.0,564.0,551.0,8,16.0,558.0,541.0,564.0
432-1-18,Stortjørna,26213,11.2552876113564,61.5993398286154,1.388,418.0,430.0,425.0,4,4.0,426.0,423.0,427.0
432-2-23,Hundtjørna,26214,10.95825656429,61.8239572007955,1.5772,410.0,449.0,430.0,7,13.0,433.0,420.0,441.0
432-4-1,Sølensjøen,26215,11.6801909142182,61.8776400443718,387.6418,366.0,947.0,571.0,461,103.0,564.0,491.0,631.0
432-4-2,Storsjøen,26216,11.3642241330709,61.3920901905526,2292.6398,233.0,1003.0,516.0,2503,117.0,495.0,428.0,585.0
434-1-11,Abbortjørna,26217,12.1431078252729,62.3059102339019,1.8761,309.0,401.0,342.0,8,28.0,331.0,324.0,352.0
434-2-4,Store Sorksjøen,26218,11.9996555189991,61.9733967155068,33.0477,411.0,570.0,447.0,51,31.0,438.0,430.0,447.0
434-2-21,Skjervagen,26219,12.1928756909154,61.9161081665176,11.4382,401.0,455.0,441.0,20,14.0,444.0,441.0,447.0
434-3-23,Fjellgutusjøen,26220,12.0951205404253,62.0645076934887,36.492,514.0,805.0,627.0,57,87.0,597.0,550.0,700.0
434-5-1,Femunden,26221,11.8675572798316,61.9351939296337,1729.7452,226.0,885.0,433.0,1915,94.0,428.0,361.0,489.0
436-1-3,Rabbtjørna,26222,11.2742683230961,62.3477713462696,1.8331,462.0,543.0,498.0,7,23.0,502.0,484.0,506.0
437-1-9,Halvorstjørna,26223,10.2083426923733,62.5311067327497,0.5498,434.0,450.0,442.0,2,8.0,442.0,438.0,446.0
438-2-19,Søre Klettsjøen,26224,10.2307372692658,61.9962024511279,3.7344,391.0,640.0,560.0,10,89.0,593.0,546.0,625.0
441-1-12,Storflotjørna,26225,11.033963781169,62.5314732059787,2.2784,429.0,502.0,467.0,8,24.0,463.0,450.0,489.0
501-3-9,Mellsjøen,26226,10.7082879772742,61.2018584915858,31.8069,629.0,889.0,816.0,52,56.0,831.0,799.0,855.0
511-3-15,Vålåsjøen,26227,9.42395542555897,62.1752634858999,125.9909,276.0,745.0,464.0,159,118.0,439.0,378.0,518.0
512-1-8,Nedre Mølmsvatnet,26228,8.37261172076234,62.2823593112504,8.9944,796.0,1150.0,976.0,21,86.0,983.0,921.0,1024.0
512-1-14,Lomtjørni,26229,8.69603661733137,62.2750979875152,0.9986,674.0,723.0,699.0,4,20.0,700.0,683.0,716.0
512-1-18,HOH 1506,26230,9.09804259669571,62.3531591233519,0.8883,712.0,849.0,768.0,4,51.0,756.0,736.0,788.0
512-2-23,Rygghøtjørni,26231,8.56801668006842,62.0417823319516,10.2197,559.0,918.0,682.0,18,104.0,622.0,600.0,771.0
512-3-12,Langvatnet,26232,9.13772042271445,62.3102787222023,11.8576,772.0,1019.0,863.0,23,70.0,846.0,814.0,883.0
513-1-7,HOH 1370,26233,7.44771800750226,62.0393019712778,1.7434,1246.0,1586.0,1360.0,6,110.0,1331.0,1290.0,1376.0
513-2-5,Grøntjørni,26234,7.80095012510874,61.7526482306374,4.1437,1413.0,1769.0,1582.0,10,103.0,1582.0,1507.0,1644.0
513-2-27,Styggvatnet,26235,7.71685603441794,61.7583230095167,9.035,1575.0,2142.0,1796.0,18,194.0,1708.0,1631.0,1949.0
514-1-1,Urdadalstjørnin,26236,8.39978129476468,61.5451123185816,3.3439,1200.0,1722.0,1355.0,12,165.0,1271.0,1223.0,1445.0
514-1-10,Sjugurdtindtjørni,26237,8.57192467454526,61.4848057233091,0.1679,1283.0,1326.0,1305.0,2,22.0,1305.0,1294.0,1316.0
514-1-29,Brangsdalstjørnin,26238,8.09154246156622,61.6257908865495,1.897,1092.0,1450.0,1274.0,7,116.0,1245.0,1203.0,1364.0
514-2-26,Panna,26239,8.29801056455344,61.5483007094524,5.0742,1070.0,1475.0,1228.0,11,109.0,1214.0,1136.0,1283.0
515-1-23,Skytningen,26240,9.02848375593406,61.8137201573845,0.9856,395.0,459.0,433.0,6,20.0,436.0,426.0,445.0
515-2-1,Tjørnosen,26241,9.00893116549115,61.5938319743772,6.8737,599.0,798.0,735.0,13,58.0,752.0,737.0,775.0
515-2-24,Birisjøen,26242,8.96413257138811,61.5709028690243,9.7235,607.0,778.0,681.0,20,47.0,668.0,648.0,701.0
516-2-8,Nedre Sikkilsdalsvatnet,26243,9.03165378316274,61.4823856731125,23.2908,599.0,852.0,761.0,40,58.0,770.0,747.0,791.0
517-1-16,HOH 1506,26244,9.69843400853851,61.9073799352,0.9207,757.0,864.0,800.0,4,44.0,789.0,760.0,828.0
519-1-6,Sprentjørna,26245,9.55042459384487,61.4477296095033,1.9627,554.0,681.0,627.0,7,40.0,642.0,602.0,655.0
519-2-12,Nordre Vulutjørni,26246,10.0170032845207,61.8238191862799,6.3917,540.0,883.0,734.0,14,114.0,793.0,638.0,813.0
519-2-29,Vesle Jetningen,26247,9.81661036744044,61.4758593105391,13.3496,410.0,537.0,473.0,27,39.0,479.0,436.0,503.0
520-1-11,Urdtjern,26248,10.0931250386587,61.6683264876048,3.4748,404.0,597.0,515.0,12,57.0,512.0,489.0,560.0
520-1-31,Steinslatjørnet,26249,10.6039092982198,61.4634370172065,1.1081,790.0,840.0,818.0,4,18.0,821.0,811.0,827.0
521-2-14,Tromstjørn,26250,10.5065883391567,61.4067678151119,5.1303,503.0,611.0,547.0,12,31.0,539.0,525.0,575.0
521-3-5,Lyngen,26251,10.7657127892707,61.3733966061416,9.198,684.0,862.0,778.0,17,55.0,794.0,736.0,826.0
522-1-13,Skruvdalstjernet,26252,9.54112079660592,61.2122201715875,3.1865,491.0,565.0,507.0,9,23.0,495.0,494.0,506.0
522-3-4,Øvre Reinsjøen,26253,9.57938981816738,61.2016042996613,12.708,488.0,628.0,538.0,26,44.0,527.0,500.0,560.0
522-3-16,Espedalsvatnet,26254,9.49404245031086,61.4386319421973,94.4884,398.0,748.0,595.0,127,78.0,594.0,534.0,653.0
528-2-6,Mørksjøen,26255,11.02477885679,60.5203900479097,11.9425,669.0,745.0,711.0,22,20.0,709.0,694.0,728.0
532-1-3,Fagervatnet,26257,10.4963179094583,60.1978927758715,2.0106,594.0,671.0,632.0,8,27.0,636.0,607.0,650.0
533-3-17,Mylla,26258,10.6013076726184,60.2424687744357,18.2653,571.0,701.0,649.0,32,37.0,651.0,621.0,681.0
534-5-1,Randsfjorden,26259,10.3719353898174,60.2336541514382,3699.032,137.0,986.0,518.0,4000,111.0,504.0,447.0,567.0
536-1-12,Brokslitjernet,26260,10.298834696484,60.8026455464363,0.539,435.0,445.0,439.0,3,4.0,438.0,436.0,442.0
538-1-20,Kolsrudvatnet,26262,10.2164595962312,60.8925939627145,1.2422,429.0,487.0,463.0,5,22.0,457.0,457.0,486.0
538-2-2,Vangsjøen,26263,9.99057711161386,60.8772563624025,0.3511,479.0,516.0,497.0,2,18.0,497.0,488.0,506.0
540-2-21,Holmevatnet,26264,9.91175204620117,60.7364758642945,8.5409,490.0,582.0,540.0,19,26.0,540.0,526.0,561.0
540-2-22,Øyvatnet,26265,9.80125745748835,60.7780583785339,0.644,449.0,465.0,455.0,4,6.0,452.0,451.0,455.0
541-2-3,Grannstøltjernet,26267,9.69370777932616,61.0473093550533,0.5334,656.0,678.0,670.0,3,10.0,676.0,666.0,677.0
542-1-19,Nisetjernet,26268,9.43985539936335,61.1213710879886,16.4278,527.0,667.0,595.0,30,43.0,582.0,559.0,635.0
542-1-25,Nordre Valegrovtjernet,26269,9.41477739258584,61.0826999176353,0.7643,569.0,595.0,579.0,4,10.0,577.0,573.0,584.0
542-3-6,Hærevatn,26270,9.2423880464575,60.8180097346457,5.0872,463.0,677.0,562.0,13,69.0,543.0,507.0,609.0
542-3-8,Stogofjorden,26271,9.20588350507887,60.8114833736562,17.4578,435.0,739.0,612.0,33,93.0,645.0,537.0,688.0
543-3-2,Vasetvatnet,26272,8.98509337934663,60.9960187512512,82.7977,454.0,809.0,591.0,111,60.0,580.0,554.0,619.0
543-4-4,Storfjorden,26273,8.87088530080531,60.9099648767178,406.4,529.0,1135.0,800.0,477,138.0,812.0,705.0,905.0
544-1-2,HOH 955,26274,9.1796733512897,61.1444209124803,0.3773,441.0,486.0,461.0,4,19.0,459.0,444.0,476.0
544-1-27,HOH 1198,26275,8.84652108022787,61.2947470082311,0.2054,969.0,981.0,975.0,2,6.0,975.0,972.0,978.0
544-2-10,Fisketjerni,26276,8.79127708628202,61.3963613867133,3.6822,980.0,1293.0,1133.0,11,91.0,1144.0,1080.0,1197.0
544-2-11,Nordre Vindin,26277,9.02611009614722,61.1953439097519,1.9164,394.0,481.0,440.0,7,31.0,441.0,420.0,463.0
545-1-24,Myrjetjernet,26278,8.28789252557704,61.3446068989927,2.156,1123.0,1376.0,1301.0,7,80.0,1317.0,1289.0,1357.0
545-1-32,Tvindehaugtjernet,26279,8.31391011589577,61.32355597876,2.4862,1062.0,1304.0,1231.0,8,83.0,1265.0,1217.0,1282.0
545-2-4,HOH 1337,26280,8.15626080124758,61.2273188776906,1.9782,1208.0,1332.0,1266.0,10,35.0,1270.0,1239.0,1285.0
545-2-13,Fussegrovtjørni,26281,8.28432132568782,61.0883385290868,3.8912,883.0,1190.0,1043.0,11,94.0,1052.0,984.0,1104.0
545-2-17,Langetjernet,26282,8.5948097800687,61.2318793093563,10.1966,1042.0,1342.0,1171.0,22,83.0,1158.0,1109.0,1223.0
545-2-25,Seksin,26283,8.7380981444773,61.3164864210084,7.1962,993.0,1159.0,1086.0,17,43.0,1090.0,1064.0,1112.0
545-3-7,Helin,26284,8.73814330166968,61.0058504372998,57.1422,633.0,1002.0,792.0,83,78.0,792.0,735.0,847.0
545-3-19,Nedre Årdalsvatnet,26285,8.1757970572227,61.235842504203,8.9436,1199.0,1372.0,1280.0,17,50.0,1286.0,1236.0,1299.0
545-4-1,Bygdin,26286,8.79714698082338,61.3281909507296,304.8955,944.0,2239.0,1372.0,380,233.0,1328.0,1196.0,1534.0
545-4-3,Vangsmjøsi,26287,8.7014478805535,61.1486002136468,487.0338,412.0,1372.0,920.0,575,167.0,919.0,805.0,1022.0
545-4-5,Tyin,26288,8.14105557169029,61.2746326478613,182.2556,928.0,2269.0,1402.0,235,274.0,1338.0,1183.0,1577.0
604-1-17,Trytetjerna,26289,9.58876341613778,59.5860113161724,4.3081,621.0,670.0,650.0,10,14.0,652.0,645.0,657.0
604-2-18,Tverrvatnet,26290,9.6349498353585,59.4798639538655,0.8548,978.0,1002.0,991.0,4,10.0,993.0,985.0,1000.0
605-1-5,Gravvatnet,26291,9.83046024386151,60.4564651350761,1.0503,776.0,898.0,811.0,5,44.0,790.0,785.0,805.0
612-5-1,Tyrifjorden,26293,9.9671022362075,59.9301104634046,9953.9983,42.0,1372.0,574.0,10416,184.0,531.0,454.0,647.0
615-2-17,Eitrytetjern,26294,9.43497255636751,60.3581755448784,1.2352,588.0,647.0,621.0,6,24.0,627.0,599.0,643.0
616-1-10,Kytetjernet,26295,8.92626405644343,60.578923857798,20.3173,416.0,545.0,480.0,34,32.0,477.0,458.0,501.0
616-1-13,Langevatnet,26296,8.74121424062652,60.5096290205186,1.5857,542.0,584.0,569.0,7,14.0,572.0,564.0,578.0
616-1-26,Hammartjørnet,26297,8.805569535336,60.5859789033799,0.5287,499.0,545.0,527.0,4,17.0,532.0,520.0,539.0
616-1-31,Vardetjernan,26298,8.88717855130205,60.5982794024757,0.8383,431.0,489.0,465.0,6,19.0,471.0,455.0,477.0
616-2-6,Ausa,26299,8.77365699519881,60.5618984938784,3.6264,539.0,624.0,575.0,12,22.0,578.0,562.0,583.0
616-2-20,Belgevatnet,26300,8.77925721366826,60.579867412649,5.9532,477.0,567.0,532.0,16,25.0,540.0,520.0,554.0
617-1-19,Nystøltjørni,26301,8.7942021897394,60.7186515232512,0.3451,466.0,492.0,478.0,4,10.0,477.0,470.0,486.0
617-1-23,Metubba,26302,9.08831174795543,60.7872954480304,6.2787,391.0,688.0,474.0,17,98.0,424.0,416.0,459.0
617-1-28,Ørkvatnet,26303,8.97999439475107,60.7641395199951,8.1034,392.0,546.0,434.0,18,37.0,429.0,408.0,453.0
618-1-3,HOH 1456,26304,8.14809552658439,60.9001224445984,6.2714,823.0,1200.0,967.0,14,116.0,930.0,897.0,969.0
618-3-1,Vannen,26305,8.73263218008228,60.8417287293492,15.964,545.0,767.0,635.0,34,47.0,629.0,603.0,664.0
619-1-1,Butjørni,26306,8.67523130469535,60.5686375870467,0.2667,582.0,587.0,584.0,3,2.0,583.0,582.0,585.0
619-2-19,Mefaringen,26307,8.53063849216731,60.5674511750826,3.1827,525.0,591.0,546.0,10,21.0,542.0,531.0,547.0
619-2-33,Austre Flågrunnsvatnet,26308,7.80966857748113,60.8625302035427,1.8534,1154.0,1264.0,1200.0,7,41.0,1195.0,1169.0,1226.0
619-3-2,Vassfjorden,26309,8.4216888638847,60.6907451267063,177.7862,653.0,1199.0,859.0,224,118.0,868.0,769.0,934.0
619-3-10,Halldalsvatnet,26310,8.47896569154845,60.4934995395858,59.3604,421.0,635.0,529.0,85,53.0,524.0,482.0,574.0
620-1-6,HOH 1760,26311,7.70310023452338,60.6008237901673,1.0992,1317.0,1425.0,1380.0,5,37.0,1397.0,1365.0,1397.0
620-1-14,HOH 1340,26312,7.73520245035795,60.6416476207843,8.3152,1337.0,1632.0,1472.0,17,73.0,1477.0,1420.0,1526.0
620-1-15,Skarvåtjørnane,26313,7.74542672688829,60.7041149791133,0.3679,1222.0,1259.0,1240.0,2,18.0,1240.0,1231.0,1249.0
620-1-21,HOH 1540,26314,7.69624573176361,60.6287567457133,0.2199,1419.0,1530.0,1474.0,2,55.0,1474.0,1447.0,1502.0
620-3-7,Skurdalsfjorden,26315,8.31551250565167,60.4614328434061,109.1997,457.0,872.0,622.0,144,92.0,620.0,543.0,674.0
620-4-6,Ørteren,26316,7.82916704789515,60.4803517027346,75.5825,692.0,1409.0,977.0,110,178.0,945.0,822.0,1104.0
621-1-27,Flåvatna,26317,9.18767726373529,60.2009433159877,4.453,575.0,696.0,619.0,11,34.0,604.0,601.0,639.0
621-3-5,Soneren,26318,9.5897960140874,60.0414802198254,680.3768,411.0,1098.0,683.0,777,100.0,674.0,607.0,731.0
622-2-43,Trytetjern,26319,9.76778824876085,60.2127199923649,4.1861,520.0,566.0,539.0,13,14.0,536.0,528.0,553.0
622-4-4,Krøderen,26320,9.78343742387965,60.1230832650787,5079.1961,188.0,3394.0,798.0,5472,391.0,718.0,520.0,986.0
624-1-8,Grøntjern,26322,9.71237783054907,59.7121154645318,2.1969,478.0,548.0,515.0,8,23.0,512.0,499.0,535.0
624-1-55,Brånavatnet,26323,9.85589884253812,59.6385278245579,0.9186,546.0,593.0,564.0,3,20.0,553.0,550.0,573.0
624-2-23,Skogsvatnet,26324,9.93771939479109,59.822871074637,2.0129,428.0,568.0,494.0,7,45.0,493.0,463.0,521.0
624-4-5,Eikeren,26325,9.84460126473128,59.6998679377528,343.7248,266.0,935.0,651.0,426,111.0,664.0,561.0,725.0
631-1-4,Nydammen,26326,9.46719485961799,59.7452383727694,0.1153,730.0,763.0,746.0,2,17.0,746.0,738.0,755.0
631-2-29,Tryttjern,26327,9.65994479504712,59.8818118692908,1.2784,615.0,636.0,626.0,6,7.0,627.0,621.0,631.0
632-1-20,Trytetjørn,26328,9.37586241288361,59.9836778187127,0.5726,627.0,712.0,673.0,4,31.0,676.0,655.0,694.0
633-1-11,Øvre Halstjørnane,26329,8.18061712086042,60.2570189016832,3.0918,604.0,692.0,669.0,11,23.0,673.0,663.0,684.0
633-1-16,HOH 1217,26330,7.73333504075183,60.2236101889094,7.0941,694.0,805.0,770.0,15,28.0,778.0,768.0,782.0
633-1-18,HOH 1250,26331,8.61882773609941,60.3080709772889,1.6913,765.0,799.0,782.0,6,13.0,783.0,770.0,792.0
633-1-29,Tjørngrøtjørnane,26332,8.34787962858316,60.3611889358778,0.7998,528.0,602.0,553.0,4,29.0,541.0,534.0,560.0
633-1-30,Såtenattjørnan,26333,9.13502219078797,60.3598072684077,4.562,539.0,610.0,576.0,12,23.0,571.0,563.0,599.0
633-2-2,Frygnevatnet,26334,8.637139720101,60.3934013874932,18.3314,391.0,692.0,506.0,30,84.0,493.0,433.0,543.0
633-2-4,Grånsettjørni,26335,9.08333136242115,60.3672071227073,2.521,525.0,594.0,565.0,8,21.0,564.0,554.0,579.0
633-2-8,Vestre Søltjørni,26336,8.24305711713547,60.1842505228451,15.1926,616.0,839.0,734.0,29,62.0,730.0,699.0,793.0
633-2-11,Øvre Nutetjørnane,26337,8.36685039091497,60.1927766807078,1.5621,716.0,842.0,790.0,8,42.0,804.0,752.0,820.0
633-2-13,Holmevatni,26338,8.9416183922366,60.4253733896881,4.601,532.0,657.0,568.0,12,31.0,561.0,557.0,569.0
633-2-21,Flåtåtjørni,26339,8.51912925631786,60.2412209162478,21.049,628.0,757.0,712.0,38,35.0,721.0,698.0,741.0
633-2-24,Vegardhovdtjørnan,26340,7.82267048007275,60.1436340623229,6.0277,803.0,884.0,850.0,11,21.0,852.0,838.0,863.0
633-2-25,HOH 1065,26341,9.11107483042371,60.3146283698874,3.0193,607.0,647.0,629.0,10,12.0,630.0,623.0,639.0
633-3-14,Krossvatnet,26342,8.00625058661523,60.2569185832041,408.4375,576.0,1425.0,946.0,510,172.0,931.0,815.0,1062.0
633-4-8,Langesjøen,26343,7.87360752911394,60.2598371171765,128.7358,647.0,950.0,785.0,169,61.0,778.0,743.0,826.0
714-3-5,Bergsvatnet,26344,10.0462323044113,59.5957511536897,179.1329,454.0,935.0,704.0,239,77.0,699.0,654.0,748.0
720-2-1,Gjennestadvatnet,26345,10.2515959468191,59.2329869032185,3.9461,618.0,671.0,640.0,12,17.0,640.0,626.0,651.0
728-1-3,Solbergvatnet,26346,9.98920354079026,59.3323836930036,3.5992,796.0,903.0,864.0,12,26.0,867.0,853.0,878.0
728-1-6,Rosovatnet,26347,10.0119855722768,59.4016034918378,5.4882,788.0,936.0,880.0,16,44.0,884.0,860.0,915.0
806-2-23,Holmevatn,26348,9.59064883070608,59.4500343521137,4.1866,970.0,1064.0,999.0,12,26.0,991.0,980.0,1010.0
807-1-36,Vassenden,26349,9.34905296345812,59.599746447811,14.5606,477.0,613.0,536.0,27,40.0,526.0,512.0,563.0
807-3-1,Sønstevatn,26351,9.15019295701711,59.7069827709718,42.6482,528.0,1054.0,646.0,65,97.0,621.0,589.0,666.0
807-4-1,Heddalsvatnet,26352,9.30769712506706,59.4358350684154,5357.1474,302.0,2533.0,872.0,5712,292.0,814.0,673.0,1014.0
815-1-29,HOH 50,26353,9.28087234332899,58.8919749975403,2.0562,863.0,932.0,900.0,9,19.0,905.0,887.0,906.0
815-2-27,Lønstravatnet,26354,9.25275103887932,58.8742828624006,3.4095,882.0,944.0,920.0,10,17.0,924.0,912.0,928.0
815-3-8,Leivatnet,26355,9.32701887628891,58.7625439164453,47.9282,702.0,874.0,760.0,72,43.0,751.0,728.0,784.0
817-1-14,Teksle,26356,9.15087583930692,59.0228335295387,1.7922,702.0,734.0,718.0,7,10.0,719.0,711.0,726.0
817-1-33,Store Kyrsvatnet,26357,9.11942956289768,59.1002677919367,7.5065,721.0,801.0,749.0,16,24.0,744.0,730.0,766.0
817-1-34,Eldhustjenna,26358,9.20734476489318,59.0029804843561,1.0509,748.0,819.0,779.0,5,23.0,778.0,767.0,784.0
817-1-38,Signevatnet,26359,9.12181365733133,59.1501865515368,2.0513,768.0,801.0,785.0,7,11.0,781.0,776.0,795.0
817-1-43,Skultrevatnet,26360,9.26881080348331,59.0715676156208,1.5099,753.0,776.0,770.0,7,7.0,772.0,769.0,774.0
817-1-72,Dei store tjørnane,26361,8.68507095273673,59.0719043083137,0.3157,1119.0,1192.0,1156.0,2,36.0,1156.0,1137.0,1174.0
817-2-61,Sandvatnet,26362,8.74728202926382,59.0873248559345,3.8721,1004.0,1077.0,1039.0,9,25.0,1044.0,1017.0,1058.0
819-2-13,Prestevatnet,26364,9.20636218020862,59.1660727704839,3.1126,773.0,801.0,790.0,9,10.0,790.0,783.0,798.0
819-2-14,Bøvatnet,26365,9.23031535570494,59.1421884709539,28.0432,751.0,842.0,794.0,45,18.0,797.0,781.0,806.0
819-3-17,Store Børten,26366,9.23121732133867,59.1718150102677,87.7663,686.0,842.0,772.0,121,31.0,776.0,753.0,796.0
822-2-11,Børtevatn,26367,9.35615773548256,59.4087221002901,4.8881,640.0,895.0,762.0,12,77.0,739.0,713.0,829.0
826-1-7,Vesle Flottetjørn,26368,8.52126709461534,59.9797575885148,2.3367,801.0,859.0,826.0,8,18.0,821.0,817.0,829.0
826-1-16,Svarttjørn,26369,8.85866374193609,59.892298225079,0.4595,768.0,842.0,808.0,3,31.0,816.0,792.0,829.0
826-1-17,HOH 1162,26370,8.49316202779955,59.9630635265355,7.7678,795.0,934.0,854.0,16,47.0,831.0,814.0,904.0
826-1-18,Fikstjørn,26371,8.61817632850538,59.8510525668582,0.845,858.0,1000.0,933.0,3,58.0,943.0,900.0,971.0
826-1-20,Grysletjørn,26372,8.59298025385172,59.9736027788395,0.4615,801.0,845.0,830.0,3,20.0,844.0,823.0,845.0
826-1-25,HOH 1335,26373,8.03688899232859,60.1575656258763,0.8667,840.0,912.0,886.0,4,28.0,897.0,877.0,906.0
826-1-28,Storsteinvatnet,26374,8.35010048933648,59.79360226822,0.9916,650.0,785.0,723.0,5,47.0,726.0,699.0,755.0
826-1-30,Ormetjørn,26375,8.50854422134318,59.9029452843337,0.9142,773.0,805.0,784.0,4,13.0,778.0,773.0,789.0
826-1-35,Langtjørn,26376,8.40707437672207,60.0246091422781,1.0845,679.0,759.0,720.0,6,34.0,717.0,690.0,755.0
826-1-39,Torjustjørn,26377,8.48216071749788,59.9433683975556,0.2555,821.0,829.0,825.0,3,4.0,824.0,822.0,827.0
826-2-6,Viktjørn,26378,8.14062934155876,60.1135113652038,3.0252,835.0,905.0,872.0,9,21.0,865.0,860.0,885.0
826-2-24,Longetjørn,26379,8.76934361194927,59.8919167407876,0.8443,804.0,900.0,842.0,4,37.0,831.0,813.0,861.0
827-1-23,Lysetjørn,26381,8.45620733670247,59.7925211450105,14.6087,785.0,1297.0,1026.0,30,135.0,1017.0,929.0,1158.0
827-1-41,HOH 1102,26382,8.4581990447791,59.8168138885844,2.053,933.0,991.0,963.0,6,19.0,956.0,955.0,977.0
827-2-32,Sjausetvatnet,26383,8.80463238772471,59.6805208461539,3.7805,745.0,853.0,803.0,12,33.0,812.0,782.0,827.0
827-3-26,Sjåvatnet,26384,8.85808158977637,59.8313837590191,37.9899,832.0,1305.0,1021.0,61,97.0,998.0,956.0,1069.0
828-1-22,Sandtjørni,26385,8.38604922389603,59.7754737611115,2.5312,779.0,1175.0,982.0,9,132.0,943.0,876.0,1083.0
828-2-25,Grotvatni,26387,8.36043066655417,59.7374977780627,6.9414,856.0,1193.0,1060.0,16,96.0,1076.0,1000.0,1124.0
829-1-46,Stestøyltjørni,26388,8.30147324458705,59.3820255605659,1.367,556.0,610.0,590.0,6,17.0,594.0,586.0,598.0
829-2-59,Bjørntjørn,26389,8.25352578246201,59.3027199151866,1.7835,793.0,884.0,841.0,6,32.0,851.0,817.0,861.0
829-4-6,Kviteseidvatnet,26390,8.6623012953383,59.3205132682845,2970.4587,492.0,3122.0,1214.0,3247,516.0,1083.0,775.0,1569.0
831-1-26,Snotjørnane,26392,7.76631612455712,59.1382876277312,1.5112,1185.0,1232.0,1199.0,6,16.0,1191.0,1188.0,1203.0
831-2-3,Øvre Selbuvatn,26393,7.97589424913398,58.9723127581164,2.3894,1185.0,1279.0,1226.0,6,38.0,1214.0,1192.0,1262.0
831-2-29,Tussetjørn,26394,7.86506148158355,59.1642637970263,7.2573,1072.0,1252.0,1174.0,18,59.0,1195.0,1123.0,1221.0
831-2-60,Kråkestøltjørn,26395,7.99145198430155,59.0089349708419,4.7115,1117.0,1215.0,1169.0,13,35.0,1163.0,1137.0,1204.0
831-3-32,Sandvatnet,26397,8.23707692432477,59.2151328894128,9.2786,853.0,993.0,899.0,18,39.0,895.0,869.0,909.0
831-4-8,Fyresvatn,26398,8.26809672146565,59.0094203991953,875.7534,617.0,1382.0,945.0,1003,171.0,950.0,807.0,1080.0
833-1-21,Grunntjørn,26399,8.26741628787033,59.5576763410611,0.442,811.0,834.0,825.0,4,9.0,827.0,820.0,832.0
833-2-16,Kambetjørn,26400,7.76540563495976,59.3731272393947,2.4283,1054.0,1291.0,1176.0,11,70.0,1177.0,1148.0,1218.0
833-2-30,Kjønnesviksvatnet,26401,7.71607297339823,59.3444833883888,11.1621,1175.0,1382.0,1277.0,21,51.0,1271.0,1247.0,1294.0
833-3-3,Åmlivatn,26402,8.04118679113999,59.3838638046184,38.0538,645.0,1054.0,882.0,60,111.0,899.0,798.0,971.0
834-1-6,HOH 1387,26403,7.38666879924104,59.9840229063178,0.3667,1511.0,1540.0,1526.0,2,15.0,1526.0,1518.0,1533.0
834-2-2,Midtre Supsavatn,26404,7.69423456819703,59.622110944244,20.6601,1212.0,1887.0,1536.0,39,186.0,1540.0,1387.0,1684.0
834-2-5,Vonevatn,26405,7.69418256537088,59.8392835737537,1.9955,1219.0,1538.0,1352.0,7,114.0,1324.0,1277.0,1414.0
834-2-8,Fetveittjørn,26406,7.87769636885259,59.6256587644421,2.0598,853.0,958.0,907.0,6,42.0,909.0,868.0,949.0
834-2-10,Straumstøltjørn,26407,7.69325611942932,59.7324074643928,1.6068,907.0,994.0,947.0,6,30.0,955.0,922.0,958.0
834-2-12,Torstjørni,26408,7.99296189893916,60.0362827942147,2.017,925.0,1033.0,954.0,9,39.0,935.0,930.0,943.0
834-2-18,Såtetjørn,26409,8.11399437955764,59.928402526401,1.0174,1190.0,1245.0,1222.0,5,19.0,1225.0,1216.0,1235.0
834-2-26,Vikvatnet,26410,8.20359610621167,59.6084272919357,36.1667,805.0,1098.0,950.0,57,73.0,959.0,894.0,1009.0
834-2-28,HOH 1367,26411,7.78953974394841,59.9685467103944,0.7958,1206.0,1272.0,1235.0,4,26.0,1230.0,1214.0,1251.0
834-3-14,Lognvikvatn,26413,8.09894157172958,59.683745912302,72.0871,660.0,1024.0,798.0,104,99.0,769.0,717.0,866.0
834-4-5,Totak,26414,8.01580937230118,59.6458374224937,860.064,635.0,2299.0,1242.0,1012,370.0,1181.0,940.0,1541.0
834-4-7,Holmavatnet,26415,7.14303541553169,59.6795468943518,53.8818,1785.0,2696.0,2157.0,81,181.0,2136.0,2022.0,2245.0
901-1-55,Stavvatn,26416,8.97324102300663,58.7160856231042,1.0584,937.0,974.0,957.0,5,14.0,954.0,948.0,971.0
901-2-49,Mjåvatnet,26417,9.03544907858958,58.7563274412101,6.502,902.0,958.0,937.0,18,16.0,941.0,924.0,951.0
901-3-8,Dalsvatnet,26418,9.11299255612079,58.7535705606095,18.9534,769.0,888.0,833.0,33,31.0,840.0,808.0,860.0
912-2-4,Simonstadvatnet,26420,8.97993921423657,58.7762865290739,8.3005,981.0,1034.0,1010.0,19,13.0,1015.0,1002.0,1019.0
912-2-14,Midtvatnet,26421,8.74393565349053,58.6840768542377,9.051,999.0,1073.0,1028.0,20,22.0,1024.0,1009.0,1043.0
912-2-18,Ljøstadvann,26422,8.89010129373696,58.7535283804278,10.6617,965.0,1056.0,1022.0,24,19.0,1021.0,1014.0,1032.0
912-2-27,Ljøsvannet,26423,10.8671993022734,61.1298591803362,1.6463,823.0,841.0,837.0,5,7.0,839.0,838.0,841.0
912-2-30,HOH 170,26424,8.94505085341008,58.7350306608012,1.2355,936.0,1034.0,1002.0,7,30.0,1014.0,1000.0,1016.0
914-1-14,Vålandstjern,26425,8.7524453487019,58.6101424190396,2.2769,967.0,1038.0,999.0,8,25.0,1002.0,974.0,1018.0
914-1-31,HOH 146,26426,8.77879094205777,58.643717272378,0.9026,967.0,1001.0,985.0,7,13.0,991.0,973.0,994.0
919-2-19,Ålevatnet,26428,8.37261909768992,58.6708548116896,5.9134,787.0,830.0,810.0,13,13.0,810.0,804.0,820.0
928-1-17,Krokevatn,26429,8.2347060694991,58.4290270633947,0.8489,1182.0,1206.0,1199.0,4,10.0,1205.0,1198.0,1206.0
929-1-1,Eiklitjørn,26431,8.41480516042958,58.7910371526539,0.572,859.0,888.0,874.0,3,12.0,876.0,868.0,882.0
929-1-5,Berlitjørnane,26432,8.617117815806,58.8578241813021,0.586,754.0,787.0,769.0,5,14.0,761.0,757.0,785.0
929-1-20,Imetjern,26433,8.4961996399369,58.7474358040658,0.9371,784.0,808.0,793.0,4,9.0,790.0,785.0,798.0
929-1-22,Øytjørn,26434,8.12513224088403,58.8862084428947,0.4347,1308.0,1362.0,1330.0,4,21.0,1325.0,1313.0,1342.0
929-2-8,Øvre Skålvatn,26435,8.66390386302691,58.7912058592596,6.3711,863.0,943.0,893.0,16,21.0,891.0,878.0,904.0
929-2-25,Stemmevatn,26436,8.5747276144212,58.9262518941783,0.4807,716.0,739.0,725.0,3,10.0,720.0,718.0,729.0
929-2-26,Lauvlivatn,26437,8.29861192980271,58.7985680121967,4.1719,1056.0,1149.0,1098.0,12,26.0,1094.0,1081.0,1115.0
937-2-1,Midtvatnet,26439,7.65238834548641,58.4731983953699,3.8378,1302.0,1374.0,1336.0,12,23.0,1340.0,1322.0,1346.0
938-1-9,Longeraktjørn,26441,7.94479409055733,58.7649936255906,0.6351,1077.0,1219.0,1141.0,4,51.0,1133.0,1118.0,1156.0
938-1-23,Kvivotni,26442,7.17504193098538,58.9291757834846,5.9815,1705.0,1880.0,1769.0,16,50.0,1754.0,1734.0,1792.0
938-1-27,Fånetjørn,26443,7.86098750402924,58.7767474984173,1.6487,936.0,1121.0,1023.0,7,53.0,1028.0,994.0,1045.0
938-1-28,Hovotni,26444,7.71968393695845,59.0385537055681,2.0528,1102.0,1170.0,1144.0,7,24.0,1150.0,1127.0,1164.0
938-1-29,Beritstjørni,26445,7.91900463750103,58.7408438312187,0.3,1156.0,1186.0,1168.0,3,13.0,1162.0,1159.0,1174.0
938-2-10,Skjevlevatni,26446,7.99651422601173,58.8827951242162,1.1944,1209.0,1350.0,1245.0,5,53.0,1221.0,1218.0,1227.0
938-2-15,Flåvatnet,26447,7.29409201687962,58.9463498250571,1.3852,1841.0,1964.0,1876.0,6,42.0,1863.0,1848.0,1877.0
938-3-24,Sandsvatnet,26448,7.9665084557001,58.7970543054891,22.8364,1013.0,1323.0,1154.0,41,65.0,1145.0,1113.0,1200.0
940-1-4,Urdevotni,26449,7.33036649624093,59.04997417708,0.6959,1556.0,1709.0,1625.0,4,55.0,1618.0,1597.0,1646.0
940-1-6,HOH 1220,26450,7.203418012512,59.217161049987,1.9768,2003.0,2449.0,2261.0,5,164.0,2260.0,2172.0,2420.0
940-1-10,HOH 1114,26451,7.37218146300172,59.1219896753308,0.4577,1728.0,1785.0,1757.0,2,29.0,1757.0,1742.0,1771.0
940-1-11,HOH 1285,26452,7.17754019934984,59.2351662199082,0.1724,2345.0,2356.0,2350.0,2,6.0,2350.0,2347.0,2353.0
940-1-13,HOH 1238,26453,7.110904230322,59.2007361587119,0.5642,2526.0,2687.0,2606.0,4,61.0,2606.0,2562.0,2650.0
940-1-24,HOH 1050,26454,7.64611752820185,59.3320411306314,0.7307,1258.0,1382.0,1298.0,5,43.0,1283.0,1282.0,1285.0
940-2-33,Hovdevatnet,26455,7.43202592517295,59.1109559367797,8.672,1339.0,1871.0,1594.0,18,143.0,1588.0,1485.0,1687.0
940-2-51,Langevatn,26456,7.72293817323831,59.0616956585811,4.8694,1132.0,1233.0,1189.0,12,30.0,1190.0,1167.0,1213.0
940-2-52,Øvre Krokvatnet,26457,7.37362634831307,59.1954188451548,2.0356,1797.0,1985.0,1900.0,6,63.0,1897.0,1866.0,1949.0
941-1-3,HOH 1110,26458,7.14266494309943,59.6234229665932,0.5782,2107.0,2166.0,2137.0,2,30.0,2137.0,2122.0,2152.0
941-1-8,HOH 1168,26459,6.98703256882244,59.5120062286031,1.5739,2414.0,2623.0,2515.0,6,67.0,2518.0,2472.0,2549.0
941-1-15,HOH 1040,26460,6.99201032174007,59.2960938671524,3.1435,2174.0,2227.0,2210.0,11,18.0,2216.0,2205.0,2223.0
941-1-18,HOH 1260,26461,6.90560984539243,59.2140881122645,0.3749,2160.0,2364.0,2244.0,4,74.0,2226.0,2201.0,2268.0
941-1-30,HOH 1221,26462,6.87617856822777,59.2126609607291,1.1835,2236.0,2641.0,2461.0,6,137.0,2464.0,2383.0,2572.0
941-2-2,HOH 1238,26463,7.59604952701393,59.4569832213852,3.1452,1551.0,1741.0,1664.0,8,64.0,1665.0,1635.0,1724.0
941-2-17,Reinevasstjørni,26464,7.20882120428649,59.4063679173945,1.2141,2263.0,2389.0,2329.0,5,44.0,2338.0,2300.0,2357.0
941-2-32,HOH 1080,26465,6.85489094575587,59.3370633608145,1.2725,2328.0,2513.0,2423.0,5,66.0,2402.0,2393.0,2481.0
941-2-34,Den lange tjørni,26466,7.23531914026467,59.6538977953699,0.8441,1785.0,1999.0,1931.0,5,78.0,1941.0,1930.0,1998.0
941-3-5,Reinevatn,26467,7.21886263726507,59.4005298867255,15.4941,2173.0,2516.0,2304.0,29,90.0,2283.0,2241.0,2357.0
941-3-12,Breivevatnet,26468,7.29868318804918,59.5672901816401,108.2548,1308.0,2380.0,1918.0,147,244.0,2007.0,1782.0,2093.0
941-3-13,Ormsavatnet,26469,7.16646337980996,59.5062474279074,98.4845,1921.0,2758.0,2209.0,139,188.0,2172.0,2055.0,2317.0
941-3-18,Urdevatnet,26470,7.01836556768949,59.5755033003129,9.3707,2039.0,2264.0,2140.0,19,73.0,2124.0,2078.0,2190.0
941-4-2,Store Urevatn,26471,7.18724204594425,59.4584673520025,54.0924,2165.0,2595.0,2390.0,84,93.0,2394.0,2335.0,2443.0
1001-1-55,Skeivatnet,26472,7.86252763060646,58.2212059287289,0.7438,1292.0,1316.0,1302.0,4,10.0,1300.0,1293.0,1309.0
1002-1-62,Vråvatn,26474,7.40235991951083,58.0872681166407,0.7125,1651.0,1760.0,1713.0,6,38.0,1721.0,1685.0,1742.0
1003-1-16,HOH 130,26475,6.75922674402309,58.2138073496554,1.1435,1699.0,1727.0,1717.0,5,11.0,1723.0,1711.0,1725.0
1003-1-18,HOH 14,26476,6.87405746828205,58.0967345492379,0.2425,1211.0,1211.0,1211.0,1,0.0,1211.0,1211.0,1211.0
1003-2-2,Brastadvatnet,26477,6.68607098525707,58.0983377826324,5.2864,678.0,1140.0,893.0,14,163.0,842.0,736.0,1066.0
1004-1-2,Engelsvatnet,26478,6.66434637055674,58.2269857445314,0.3335,1663.0,1672.0,1667.0,2,5.0,1667.0,1665.0,1670.0
1004-1-21,Skultjørnan,26479,6.63707960774574,58.536357168284,0.9847,2213.0,2276.0,2234.0,4,25.0,2224.0,2216.0,2242.0
1004-2-6,Djupvatnet,26480,6.71443908823616,58.4995642757385,0.8393,1951.0,2096.0,2041.0,6,49.0,2065.0,2019.0,2065.0
1017-1-14,Gyvatnet,26481,7.71323374156413,58.2890547929466,1.674,1319.0,1379.0,1350.0,6,20.0,1352.0,1335.0,1363.0
1017-1-31,Gardvatnet,26482,7.59740387458074,58.3186030141985,1.0584,1218.0,1276.0,1242.0,6,19.0,1233.0,1233.0,1251.0
1021-1-27,Grunnevatnet,26483,7.59730092749079,58.2465951951619,0.4567,1384.0,1454.0,1414.0,5,24.0,1418.0,1393.0,1420.0
1021-1-61,Kringlevatnet,26484,7.6664820394067,58.1886781030256,0.6724,1501.0,1528.0,1517.0,4,11.0,1520.0,1511.0,1527.0
1026-1-6,HOH 737,26485,7.19089728189341,58.6646337106997,3.2349,2301.0,2521.0,2412.0,8,71.0,2392.0,2374.0,2464.0
1026-1-10,HOH 875,26486,7.2005672855692,58.8295900885084,0.3696,1859.0,1875.0,1867.0,2,8.0,1867.0,1863.0,1871.0
1026-2-10,Kjosevatn,26487,7.63956721099372,58.7501797502157,13.7198,1270.0,1530.0,1405.0,26,68.0,1407.0,1363.0,1451.0
1026-2-20,Storevatn,26488,7.43084457453032,58.7664830600892,1.2031,1582.0,1733.0,1653.0,6,52.0,1650.0,1611.0,1689.0
1026-3-3,Langevatn,26491,7.36629876396766,58.8125720450285,168.4574,1514.0,1985.0,1760.0,222,84.0,1750.0,1703.0,1817.0
1026-3-18,Storevatnet,26492,7.22890179112086,58.7505908574839,6.3396,2037.0,2349.0,2175.0,15,89.0,2181.0,2096.0,2230.0
1026-3-19,Ljoslandsvatnet,26493,7.37108873032463,58.7536202151644,259.5621,1514.0,2349.0,1830.0,338,146.0,1804.0,1727.0,1893.0
1029-1-26,Vassåkervatnet,26494,7.39292279527645,58.0723176520464,2.0903,1552.0,1713.0,1648.0,7,51.0,1672.0,1623.0,1677.0
1032-2-4,Jovatnet,26495,7.12796336778336,58.1700024282253,1.8728,1617.0,1746.0,1672.0,6,47.0,1665.0,1631.0,1705.0
1032-2-13,Hagevatnet,26496,7.08703581502924,58.1946459535829,3.8042,1755.0,1852.0,1803.0,11,26.0,1813.0,1791.0,1817.0
1034-1-4,Grantjørni,26497,7.12018181812587,58.58296781349,2.3339,1863.0,1955.0,1909.0,8,29.0,1908.0,1889.0,1929.0
1034-2-22,Bjønnvatn,26499,7.24077795346034,58.5705798968225,1.8734,2170.0,2293.0,2221.0,7,42.0,2209.0,2192.0,2244.0
1037-1-13,Husbrytjørn,26500,6.98096316339324,58.4367633101483,0.7887,1733.0,1770.0,1752.0,4,14.0,1752.0,1743.0,1761.0
1037-2-14,Hellartjern,26501,7.03899384227484,58.7232091057653,2.4894,2157.0,2237.0,2190.0,8,23.0,2187.0,2178.0,2198.0
1046-1-8,Småtjørnan,26503,6.80299227580454,58.6432600986347,1.0291,1847.0,2005.0,1922.0,4,61.0,1917.0,1875.0,1964.0
1046-1-11,HOH 573,26504,6.7212388439884,58.7803131848396,4.0518,2294.0,2489.0,2394.0,11,65.0,2402.0,2344.0,2454.0
1046-1-12,HOH 760,26505,6.63954476059344,58.8069650259268,0.3878,2409.0,2498.0,2443.0,4,34.0,2433.0,2421.0,2456.0
1046-1-15,HOH 1041,26506,6.62821299890883,58.9392982276755,0.2361,2987.0,2992.0,2990.0,2,2.0,2990.0,2988.0,2991.0
1046-1-20,Litle Svartevatnet,26507,6.48779883876442,58.6566362753105,4.5048,2681.0,2977.0,2852.0,13,85.0,2881.0,2796.0,2921.0
1046-1-24,HOH 944,26508,6.67010660546782,58.9624990707547,0.3181,2774.0,2787.0,2780.0,2,6.0,2780.0,2777.0,2783.0
1046-1-30,HOH 739,26509,6.5483221213005,58.7846619345715,8.693,2501.0,2752.0,2635.0,20,63.0,2641.0,2614.0,2659.0
1046-1-33,HOH 850,26510,6.59171495171848,58.8569984206159,0.839,2599.0,2723.0,2660.0,5,42.0,2654.0,2641.0,2684.0
1046-2-9,HOH 860,26511,7.1017671469813,58.9410118385951,8.7072,1799.0,2135.0,1962.0,18,105.0,1987.0,1864.0,2040.0
1046-2-12,Indre Skeidsvatn,26512,6.65118918285434,58.7843123663041,2.983,2434.0,2530.0,2470.0,10,29.0,2460.0,2448.0,2487.0
1046-2-15,Krokevatn,26513,6.89683695601398,58.8157006237118,3.9011,2224.0,2317.0,2276.0,11,33.0,2279.0,2250.0,2309.0
1046-2-17,Åsmundsvatnet,26514,6.79731158931634,58.6141619721584,12.1566,1854.0,2071.0,1970.0,28,56.0,1958.0,1932.0,2014.0
1046-2-21,Falketjørnene,26515,7.04722834864375,58.9369840866242,6.9873,1930.0,2209.0,2128.0,16,70.0,2145.0,2099.0,2183.0
1046-2-23,Vassfellet,26516,6.80765165515418,58.9950881010443,3.0563,2442.0,2660.0,2541.0,9,72.0,2530.0,2503.0,2602.0
1046-2-24,Flåvatnet,26517,6.80201669218655,58.5820581794018,1.2488,1955.0,2067.0,2005.0,6,41.0,2004.0,1968.0,2032.0
1046-2-30,Avedalsvatnet,26518,6.7689388224254,58.625660236574,33.1854,1752.0,2169.0,1963.0,54,116.0,1962.0,1861.0,2055.0
1046-3-9,Guddilsvatnet,26519,6.90208709112093,58.7955907213563,35.9458,1815.0,2317.0,2139.0,57,128.0,2189.0,2030.0,2234.0
1046-3-15,Storavatnet,26520,6.97015304191858,58.8354345287412,8.9544,1815.0,2197.0,2026.0,20,95.0,2018.0,1971.0,2093.0
1046-3-17,Degjevatnet,26521,6.75684953814498,58.9546976569227,62.8368,2396.0,3149.0,2742.0,97,178.0,2727.0,2605.0,2882.0
1046-3-20,Bjørnestadvatnet,26522,6.61720113149736,58.6620639260544,19.6197,2326.0,2842.0,2593.0,32,150.0,2592.0,2493.0,2721.0
1046-3-21,Langavatn,26523,6.62870084471326,58.8143850224145,12.8928,2299.0,2577.0,2444.0,22,74.0,2434.0,2396.0,2489.0
1101-3-8,Revsvatnet,26524,6.12260683447984,58.4677306076974,7.7081,1749.0,2036.0,1928.0,20,85.0,1933.0,1851.0,2011.0
1102-1-35,Auratjørna,26525,6.05142906766229,58.8619177798337,0.6223,1676.0,1925.0,1829.0,5,86.0,1848.0,1804.0,1889.0
1102-2-14,Skjelbreidtjørna,26526,5.86172406309993,58.8263859240609,33.4781,1354.0,1885.0,1683.0,52,106.0,1688.0,1619.0,1743.0
1111-1-1,Øygardstjørna,26527,6.41614132323416,58.4214795483357,0.5053,2074.0,2144.0,2110.0,4,26.0,2110.0,2091.0,2129.0
1112-1-10,Saurtjørni,26528,6.30695813906567,58.5083706417664,2.9423,1929.0,2010.0,1961.0,9,23.0,1952.0,1948.0,1974.0
1112-2-7,Glessjor,26529,6.36242328519871,58.539166784265,8.9282,2051.0,2416.0,2253.0,21,107.0,2261.0,2170.0,2341.0
1112-4-1,Lundevatnet,26530,6.47556999877061,58.3005918507877,1889.6428,1439.0,3149.0,2186.0,2181,292.0,2173.0,1969.0,2341.0
1114-1-7,Hellevatnet,26531,6.12491775792083,58.6230141950358,1.4702,2073.0,2224.0,2136.0,6,59.0,2126.0,2080.0,2185.0
1114-1-8,HOH 710,26532,6.4605474946197,58.7318568011276,0.4404,3069.0,3110.0,3084.0,3,18.0,3073.0,3071.0,3091.0
1114-1-21,Holatjørni,26533,6.4730623356463,58.6765023063776,0.2984,2973.0,3014.0,2993.0,2,21.0,2993.0,2983.0,3004.0
1114-1-33,HOH 690,26534,6.46079896233485,58.6918772814435,0.5777,2974.0,3024.0,2999.0,2,25.0,2999.0,2986.0,3011.0
1114-2-4,HOH 712,26535,6.59999277673189,58.7247718458951,1.0448,2784.0,2854.0,2822.0,4,27.0,2824.0,2802.0,2843.0
1114-2-25,Butjørnane,26536,5.90470724545879,58.6137922885676,4.9544,2083.0,2238.0,2181.0,12,41.0,2175.0,2163.0,2210.0
1114-3-4,Hofreistævatnet,26537,6.16286535365792,58.6681742903718,255.5733,1698.0,3402.0,2619.0,352,404.0,2656.0,2374.0,2958.0
1114-3-10,Indra Vinjavatnet,26538,6.21932937381661,58.7479013592835,16.0441,2291.0,2890.0,2651.0,33,110.0,2664.0,2594.0,2704.0
1119-1-25,Lauvåsvatnet,26539,5.84147987544688,58.5171481837318,0.8439,1586.0,1702.0,1644.0,4,41.0,1644.0,1624.0,1665.0
1120-3-1,Horpestadvatnet,26540,5.5558298585142,58.7368998951515,78.4994,917.0,1592.0,1229.0,113,206.0,1229.0,1030.0,1413.0
1121-2-17,Snorestadtjørnane,26541,5.83610980740426,58.6911572241488,3.2637,1664.0,1921.0,1762.0,10,72.0,1750.0,1714.0,1806.0
1122-1-2,HOH 850,26542,6.55881779624845,58.8456333957696,0.4329,2637.0,2673.0,2647.0,4,15.0,2639.0,2638.0,2648.0
1122-1-3,HOH 770,26543,6.32989967483884,58.8117549579715,1.5372,2623.0,2798.0,2717.0,5,61.0,2712.0,2684.0,2767.0
1122-1-4,Kalvedalsvatnet,26544,6.3307326581702,58.8070097792295,2.6778,2596.0,2798.0,2689.0,8,72.0,2698.0,2617.0,2742.0
1122-1-12,Langatjørn,26545,6.53958463720185,58.9136415082326,0.9443,2931.0,3057.0,2993.0,4,48.0,2993.0,2958.0,3027.0
1122-1-16,Kringlelitjørna,26546,5.93146708274687,58.7182792488446,2.6909,1493.0,1678.0,1584.0,10,53.0,1578.0,1549.0,1621.0
1122-2-2,HOH 941,26547,6.5477206610893,58.8959077129922,1.2773,2935.0,3070.0,3014.0,5,49.0,3018.0,2988.0,3057.0
1122-2-18,Øvre Bergsvatnet,26548,5.95440154517828,58.8037317774421,0.636,1731.0,1858.0,1794.0,3,52.0,1794.0,1762.0,1826.0
1129-1-15,Reinstjørn,26550,6.85485160152709,59.1303286933383,0.4201,2076.0,2318.0,2208.0,3,100.0,2230.0,2153.0,2274.0
1129-1-23,HOH 1102,26551,6.76649917297742,59.1246831295946,0.8714,2641.0,2823.0,2710.0,4,69.0,2688.0,2664.0,2735.0
1129-1-28,Kleggadalsvatn,26552,6.67459290107708,59.1599088075451,5.2207,2652.0,3343.0,2965.0,14,207.0,2924.0,2806.0,3149.0
1129-1-32,Oalandstjørna,26553,6.18361081731508,58.9030947381703,3.7262,1688.0,2138.0,1877.0,12,138.0,1875.0,1752.0,1966.0
1129-1-36,HOH 1061,26554,6.80286649008297,59.1726210206027,0.8223,2910.0,3027.0,2978.0,5,42.0,2998.0,2951.0,3003.0
1129-2-3,Søre Erevikvatnet,26555,6.05977726908567,58.9270702424758,2.4102,1398.0,1514.0,1452.0,6,40.0,1463.0,1416.0,1470.0
1129-2-11,Troppevatnet,26556,6.17800061268036,59.0005581034495,2.0978,2144.0,2467.0,2312.0,8,111.0,2293.0,2224.0,2408.0
1129-2-12,HOH 1029,26557,6.71485183082055,59.1545856503412,0.368,2979.0,3245.0,3112.0,4,116.0,3112.0,3008.0,3217.0
1129-2-15,Vongsatjørnane,26558,6.40275345294044,59.073142097038,0.422,2437.0,2547.0,2490.0,4,41.0,2488.0,2460.0,2518.0
1129-2-28,Rundatjørna,26559,6.36905928436497,59.0639540794191,0.9874,2336.0,2486.0,2431.0,4,60.0,2452.0,2402.0,2481.0
1129-2-53,Svartavatnet,26560,6.41225340967825,58.9756466512908,2.2353,2871.0,2972.0,2909.0,7,34.0,2898.0,2885.0,2925.0
1129-3-15,Haukalivatnet,26561,6.17429844089821,58.9292916638252,13.5067,1627.0,2364.0,1938.0,26,235.0,1920.0,1719.0,2128.0
1130-3-14,Vostervatnet,26562,6.0011687961092,59.1063772810406,11.2958,1365.0,1794.0,1535.0,21,133.0,1463.0,1432.0,1644.0
1133-1-18,HOH 920,26563,6.51666057080879,59.1754625515553,0.9676,2855.0,3077.0,2959.0,6,80.0,2965.0,2886.0,3015.0
1133-1-24,Eikelivatnet,26564,6.34023965436025,59.2531224163843,0.5758,2204.0,2300.0,2244.0,4,40.0,2236.0,2207.0,2272.0
1133-1-30,HOH 1080,26565,6.73925984556158,59.3136380950296,0.2265,2832.0,2880.0,2850.0,3,22.0,2836.0,2834.0,2858.0
1133-2-1,Heimra Svartavatnet,26566,6.53010317724822,59.3370574110295,6.0098,2485.0,2915.0,2708.0,13,129.0,2717.0,2610.0,2812.0
1133-2-23,HOH 1111,26568,6.80805272165141,59.2209886515637,9.7912,2236.0,3149.0,2731.0,20,235.0,2806.0,2553.0,2932.0
1133-2-29,Brokavatnet,26569,6.2292592916213,59.0756070173495,0.8717,3063.0,3096.0,3080.0,3,13.0,3079.0,3071.0,3088.0
1133-2-603,Ø.Tysdalsvatn,26570,6.25868989852815,59.1377327057821,154.7342,1995.0,3036.0,2596.0,213,168.0,2600.0,2482.0,2676.0
1134-1-27,HOH 1250,26571,6.93090633566952,59.5569543865708,0.8739,2435.0,2561.0,2510.0,4,48.0,2522.0,2487.0,2544.0
1134-2-8,Leirdålsvatna,26572,6.94624058771898,59.4903719760398,34.708,2203.0,2818.0,2492.0,55,148.0,2463.0,2385.0,2592.0
1134-2-24,Heimsvatnet,26573,6.3082559409997,59.4526631779353,7.6934,2846.0,3584.0,3185.0,20,239.0,3131.0,2978.0,3384.0
1135-1-19,Breiborgvatnet,26575,6.56338231555936,59.7215892108949,12.1911,2479.0,3490.0,2837.0,22,313.0,2737.0,2546.0,3131.0
1135-2-10,Løyndardalsvatnet,26576,6.35858142821524,59.7520555873994,5.5861,3424.0,4611.0,4095.0,13,369.0,4020.0,3842.0,4420.0
1135-2-13,Søre Dyrskardsvatnet,26577,6.59517219965727,59.8292203983715,1.5439,3381.0,3681.0,3505.0,6,115.0,3452.0,3424.0,3601.0
1135-3-3,Førstadvatnet,26578,6.56121508780844,59.694781562671,74.7282,2485.0,3645.0,3039.0,115,287.0,3052.0,2846.0,3239.0
1146-1-5,Bongsatjørna,26579,5.43871879891993,59.419629245378,0.1873,1537.0,1612.0,1570.0,4,27.0,1566.0,1557.0,1579.0
1146-1-26,Lauvskardvatnet,26580,5.72133023395764,59.3593403957169,0.6466,2173.0,2371.0,2267.0,4,72.0,2263.0,2224.0,2307.0
1146-2-6,Ådnavatnet,26581,5.43088251801275,59.3635960203098,1.1461,1506.0,1581.0,1530.0,5,28.0,1514.0,1510.0,1537.0
1146-2-19,Nordre Vadvatnet,26582,5.44115863378413,59.309056643237,0.9478,1341.0,1417.0,1386.0,5,26.0,1388.0,1380.0,1403.0
1146-2-22,Gåsavatnet,26583,5.56913673125315,59.3842716182546,2.0715,1830.0,1892.0,1855.0,6,19.0,1852.0,1844.0,1858.0
1149-1-6,Steinsvatnet,26584,5.36105967140197,59.3036774872849,0.2951,1435.0,1476.0,1460.0,3,18.0,1470.0,1453.0,1473.0
1149-2-26,Heiavatnet,26585,5.22310074031648,59.2718777571499,0.5744,1425.0,1539.0,1471.0,3,49.0,1448.0,1437.0,1494.0
1154-3-9,Gjerdesdalsvatnet,26586,5.79692971573604,59.516449317835,14.753,2453.0,2857.0,2638.0,27,111.0,2653.0,2540.0,2733.0
1154-3-16,Fjellgardsvatnet,26587,5.99866288548755,59.5551710448784,67.2667,3281.0,4043.0,3505.0,94,169.0,3458.0,3383.0,3590.0
1201-1-36,Storavatnet,26588,5.3005342910873,60.2342370756604,0.6258,1900.0,2096.0,1996.0,5,64.0,1988.0,1971.0,2026.0
1201-1-45,Stemmevatnet,26589,5.43985892550269,60.4431421712536,0.4392,2780.0,2971.0,2848.0,3,87.0,2793.0,2786.0,2882.0
1211-1-11,Vierdalsvatnet (Skålnesv.),26590,6.29286728829205,59.8156284500223,0.8179,3493.0,3819.0,3637.0,3,136.0,3598.0,3546.0,3709.0
1211-1-26,HOH 914,26591,6.4890055567399,59.8304060100643,2.8552,3692.0,4709.0,3991.0,12,257.0,3915.0,3855.0,4097.0
1216-2-12,Krossvikevatnet,26592,5.42472477895237,59.5416150624693,1.5403,1579.0,1688.0,1648.0,5,38.0,1653.0,1645.0,1677.0
1216-2-13,Mannavatnet,26593,5.36725725467359,59.5449936186955,0.9876,1494.0,1641.0,1584.0,6,47.0,1585.0,1577.0,1615.0
1216-3-11,Storavatnet,26594,5.33967743685652,59.5972839039199,14.7372,1551.0,1805.0,1724.0,27,51.0,1732.0,1697.0,1753.0
1219-1-2,Grindavatnet,26595,5.18722409789121,59.7862850760423,1.8627,1745.0,1966.0,1836.0,7,78.0,1824.0,1781.0,1878.0
1219-1-22,Stemmevatnet,26596,5.19486262785057,59.6818610960844,0.2177,1764.0,1764.0,1764.0,1,0.0,1764.0,1764.0,1764.0
1219-1-29,Eriksvatnet,26597,5.16352245543251,59.6618086069253,1.5213,1765.0,1887.0,1834.0,5,47.0,1838.0,1800.0,1881.0
1223-1-40,Øvre Vermedalsvatn,26598,5.55800427310731,59.9799940642055,3.3892,2517.0,2717.0,2617.0,11,61.0,2639.0,2571.0,2659.0
1223-2-37,Skartveitvatnet,26599,5.59740174344938,59.9751618558901,15.3175,2549.0,3064.0,2817.0,28,155.0,2801.0,2696.0,2944.0
1224-1-31,Hammarsvatnet,26600,6.19631715339313,60.1284513124374,0.2141,2484.0,2719.0,2574.0,4,91.0,2547.0,2505.0,2616.0
1224-2-14,HOH 1051,26601,6.17530068991137,59.9422281603195,0.5729,3927.0,4120.0,4017.0,4,74.0,4010.0,3959.0,4067.0
1224-2-25,Mannsvatnet,26602,5.92789631208546,59.9247255323293,5.3821,2758.0,3153.0,2928.0,15,110.0,2920.0,2849.0,2983.0
1224-2-30,Insta Bukkaspelvatnet,26603,6.3923061936758,60.1531069585086,1.7371,4075.0,4198.0,4149.0,4,50.0,4162.0,4117.0,4194.0
1224-2-39,Tveitedalsvatnet,26604,6.21159257660051,60.0788293840483,3.003,3091.0,3864.0,3420.0,9,257.0,3299.0,3235.0,3617.0
1228-1-12,HOH 1367,26606,6.82136059541347,60.0289245356231,0.3217,2698.0,2903.0,2807.0,3,84.0,2822.0,2760.0,2862.0
1228-1-13,HOH 1263,26607,7.0597027378934,59.9786488544576,4.3193,2067.0,2550.0,2300.0,11,159.0,2292.0,2175.0,2427.0
1228-1-21,Litlavatn,26608,6.85080849362122,59.8869982267964,3.2677,2525.0,2731.0,2630.0,10,73.0,2635.0,2569.0,2695.0
1228-1-42,HOH 1166,26609,6.49175425770531,59.9994418454643,0.2789,2658.0,2844.0,2750.0,4,72.0,2750.0,2696.0,2804.0
1228-2-9,HOH 1110,26610,6.63413554781033,59.8443582528536,4.8083,3302.0,3645.0,3476.0,12,104.0,3476.0,3375.0,3572.0
1228-3-4,Kaldevatn,26611,7.00930799898981,59.8093135470128,14.6925,2460.0,2964.0,2755.0,28,137.0,2780.0,2665.0,2867.0
1231-1-7,HOH 1342,26612,7.46980176614952,60.1039766027104,0.4347,1057.0,1067.0,1062.0,2,5.0,1062.0,1060.0,1065.0
1231-1-9,HOH 1274,26613,7.32489410813618,60.0614588694442,0.3436,1206.0,1252.0,1227.0,4,17.0,1224.0,1214.0,1237.0
1231-1-14,HOH 1253,26614,6.96143653295809,60.2641719896626,0.3116,1519.0,1604.0,1563.0,3,35.0,1565.0,1542.0,1584.0
1231-2-2,Kjølo,26615,6.88203054607842,60.2536777570013,19.7815,1712.0,2428.0,2120.0,33,166.0,2114.0,2021.0,2246.0
1231-2-7,HOH 1343,26616,7.16867742300908,60.190263893251,0.6474,1308.0,1422.0,1370.0,5,41.0,1365.0,1346.0,1406.0
1231-2-24,Trollavatnet,26617,6.91420571535035,60.3255334443873,6.7498,1496.0,1859.0,1698.0,18,89.0,1713.0,1644.0,1756.0
1231-3-20,Litlosvatnet,26618,7.16784183601254,60.0730136849438,61.314,1384.0,2195.0,1763.0,87,217.0,1790.0,1559.0,1945.0
1232-1-3,HOH 1200,26619,7.62276859176344,60.4587699753945,2.3487,1412.0,1598.0,1516.0,8,66.0,1526.0,1465.0,1570.0
1232-1-4,HOH 1324,26620,7.3638870604766,60.1270425185557,1.4034,1121.0,1204.0,1168.0,6,25.0,1170.0,1164.0,1179.0
1232-1-37,HOH 1360,26621,7.52740480549304,60.4784135959397,0.4324,1987.0,2056.0,2021.0,2,35.0,2021.0,2004.0,2039.0
1232-2-1,Inste Olavsbuvatni,26622,7.63408730577482,60.4300502141353,2.5276,1261.0,1566.0,1397.0,7,97.0,1369.0,1333.0,1460.0
1232-3-18,Nordvatnet,26623,7.40414902890097,60.226184010795,32.6541,1052.0,1425.0,1226.0,56,105.0,1215.0,1130.0,1313.0
1233-1-10,HOH 1240,26624,7.28818170585929,60.600216802747,3.6997,2345.0,2749.0,2538.0,12,120.0,2547.0,2443.0,2633.0
1233-2-15,HOH 1232,26625,7.37325313895493,60.6519680820394,23.3937,1841.0,2385.0,2160.0,40,127.0,2185.0,2105.0,2245.0
1233-2-27,Kvannjolvatnet,26626,6.99019223948837,60.6491622777502,13.886,2287.0,2776.0,2527.0,24,125.0,2522.0,2435.0,2603.0
1233-2-31,HOH 1410,26627,7.4415439252597,60.6575911962198,4.0738,1841.0,2227.0,2018.0,11,120.0,2040.0,1913.0,2093.0
1234-3-2,Granvinsvatnet,26628,6.72991953225432,60.5353297693854,140.4602,1646.0,2633.0,2036.0,182,197.0,1986.0,1888.0,2161.0
1235-1-8,HOH 1241,26629,6.34029593752928,60.5491475777654,1.2144,2638.0,2891.0,2739.0,6,83.0,2724.0,2681.0,2774.0
1235-1-30,HOH 1056,26630,6.36518753114156,60.7338049603425,1.9848,2465.0,2915.0,2659.0,8,160.0,2674.0,2491.0,2746.0
1235-2-38,Grønlivatnet,26631,6.59066812447131,60.5626648655197,13.2624,1954.0,2359.0,2145.0,26,110.0,2136.0,2055.0,2219.0
1235-3-14,Storavatnet,26632,6.38266097673389,60.4906378479097,9.8271,2702.0,3490.0,3124.0,19,197.0,3108.0,2999.0,3286.0
1238-2-23,Øyjordsvatnet,26633,6.11969213561613,60.2652518932212,3.5803,2477.0,3080.0,2694.0,9,194.0,2635.0,2531.0,2785.0
1238-2-42,Djupebottvatnet,26634,6.35554457428469,60.4912592141814,6.2341,3108.0,3575.0,3386.0,12,132.0,3390.0,3338.0,3477.0
1238-3-15,Myklavatnet,26635,6.09118500432524,60.4077561376258,11.3096,3307.0,3721.0,3497.0,20,128.0,3483.0,3394.0,3611.0
1241-1-18,Svinasteinstjørna,26636,5.7693793373134,60.1342536667948,0.3261,3332.0,3369.0,3351.0,2,18.0,3351.0,3342.0,3360.0
1241-2-41,Skjelbreidvatnet,26637,5.77128764053143,60.2451001911979,41.4978,2708.0,4503.0,3246.0,62,442.0,3167.0,2866.0,3505.0
1242-2-3,Fiskevatnet,26638,5.809986257024,60.4186143875485,121.4593,2872.0,5294.0,4053.0,161,527.0,3991.0,3724.0,4326.0
1246-1-15,Kvernavatnet,26639,5.00536528655345,60.4382720144014,0.2846,1881.0,1915.0,1901.0,3,15.0,1908.0,1895.0,1912.0
1252-2-8,HOH 1019,26640,6.04429015889237,61.00606338735,3.6213,3222.0,3443.0,3322.0,9,82.0,3297.0,3276.0,3417.0
1252-2-21,Nedre Sørdalsvatnet,26641,6.08957951684038,60.9595712521904,7.5899,3152.0,3718.0,3381.0,18,161.0,3356.0,3277.0,3475.0
1256-3-13,Storavatnet,26642,5.1007182008481,60.5594449428786,18.323,1984.0,2258.0,2099.0,33,64.0,2089.0,2055.0,2141.0
1260-2-20,Færevatnet,26643,4.96529172351653,60.7055139157007,2.4531,1977.0,2014.0,1993.0,8,11.0,1992.0,1985.0,1996.0
1260-2-28,Kvalheimsvatnet,26644,4.94653596260221,60.6834610587245,3.5032,1738.0,2003.0,1921.0,11,71.0,1924.0,1903.0,1972.0
1263-2-33,Hundvensvatnet,26645,5.25083147035882,60.6632343625511,2.5693,1962.0,2151.0,2046.0,8,61.0,2040.0,1997.0,2085.0
1263-2-36,Sandvikavatnet,26646,5.36116323318686,60.6092584709708,2.0915,2375.0,2417.0,2395.0,7,14.0,2397.0,2384.0,2404.0
1266-1-24,HOH 800,26647,5.79906581204766,60.9234975883271,4.2118,4111.0,4596.0,4306.0,12,129.0,4260.0,4226.0,4381.0
1266-2-6,Nordrevotni,26648,5.71095967611601,60.9258131042041,2.1183,3416.0,3661.0,3561.0,11,65.0,3566.0,3536.0,3602.0
1266-2-10,Svadfjellvatni,26649,5.78812443243309,60.97876920593,2.0256,3365.0,3606.0,3476.0,6,81.0,3497.0,3410.0,3508.0
1266-2-35,Klefjellvatni,26650,5.47439320365041,60.7549186232546,1.1752,4070.0,4888.0,4592.0,4,319.0,4705.0,4468.0,4829.0
1401-1-8,Urdavatnet,26651,5.01006243604079,61.652599118425,9.2088,2160.0,3174.0,2626.0,20,317.0,2628.0,2337.0,2911.0
1401-1-27,HOH 530,26652,5.30059942022701,61.6627731407891,0.6999,4303.0,4760.0,4477.0,5,187.0,4348.0,4332.0,4641.0
1411-1-10,Maletjørna,26653,5.08832583148769,60.9251308961365,1.5839,2788.0,3328.0,3068.0,8,178.0,3036.0,2974.0,3228.0
1412-1-9,Gardavatnet,26654,4.6957094059324,61.0292316955105,0.2668,2079.0,2099.0,2089.0,3,8.0,2090.0,2084.0,2094.0
1412-1-19,Krokevatnet,26655,4.78635852072273,61.0662959447917,0.3997,2149.0,2185.0,2172.0,3,17.0,2182.0,2165.0,2184.0
1412-2-7,Engevikvatnet,26656,4.96582128556072,61.1654742360355,6.0557,2048.0,2298.0,2180.0,14,77.0,2192.0,2125.0,2237.0
1413-1-33,Gåsevatnet,26657,5.32576131278042,61.1727331487242,0.5168,2562.0,2656.0,2602.0,3,39.0,2588.0,2575.0,2622.0
1416-1-3,Tirskardvatnet,26658,5.84121101115209,61.1964839718776,0.3107,3102.0,3234.0,3167.0,4,51.0,3166.0,3128.0,3206.0
1416-1-21,Dyttingane,26659,5.92386268365943,61.0982296318884,1.7032,2110.0,2326.0,2269.0,7,71.0,2298.0,2263.0,2310.0
1416-2-28,HOH 729,26660,5.65474861733566,60.9935850427246,0.65,3361.0,3477.0,3409.0,4,43.0,3398.0,3383.0,3424.0
1417-1-29,HOH 1171,26661,6.53113048443226,60.9382363690779,2.1568,2124.0,2365.0,2234.0,8,76.0,2223.0,2181.0,2288.0
1420-1-1,Kollsetervatnet,26662,6.96029683857583,61.2748841015024,0.6096,1954.0,2047.0,2004.0,3,38.0,2012.0,1983.0,2029.0
1420-2-12,Storavatnet,26663,6.94106496044269,61.2561415373815,1.866,1797.0,2047.0,1949.0,6,76.0,1953.0,1950.0,1986.0
1420-3-20,Dalavatnet,26664,7.00552853900507,61.297996444254,111.4571,1796.0,3199.0,2448.0,148,341.0,2507.0,2143.0,2745.0
1421-1-11,HOH 1036,26665,6.91348287515774,60.8896400042883,2.8432,2121.0,2353.0,2228.0,8,72.0,2238.0,2167.0,2260.0
1421-1-26,Øvre Leitevatnet,26666,7.39627367670327,60.9339437323012,1.2966,1397.0,1407.0,1401.0,4,4.0,1401.0,1398.0,1404.0
1421-2-15,Øv.Sleipåvotni,26667,7.58949265441742,60.8576725712206,1.1169,1541.0,1847.0,1741.0,5,118.0,1797.0,1674.0,1847.0
1421-2-31,Sleipåvotni,26668,7.55881254555123,60.8522716057204,9.8233,1540.0,1903.0,1768.0,19,103.0,1797.0,1715.0,1842.0
1421-3-24,HOH 1455,26670,7.41296513660549,60.685420052623,10.9527,1925.0,2363.0,2169.0,24,104.0,2186.0,2103.0,2226.0
1421-3-26,Norddalsvatnet,26671,7.43050754885882,60.9512661403688,5.5831,1201.0,1639.0,1378.0,15,120.0,1373.0,1294.0,1450.0
1421-3-30,Hednedalsvatnet,26672,7.37303840603625,60.737098655627,21.47,1726.0,2515.0,2163.0,35,189.0,2175.0,2093.0,2279.0
1422-1-2,HOH 1539,26673,7.77964832552942,60.9764304522216,0.4597,787.0,1012.0,934.0,3,104.0,1002.0,895.0,1007.0
1422-1-4,Fossavotni,26674,7.47973300068715,60.9815505852023,5.6107,1127.0,1544.0,1278.0,13,126.0,1257.0,1186.0,1325.0
1422-2-19,Langetjørnane,26675,7.86434829445603,61.1520532880646,3.2166,1240.0,1477.0,1345.0,10,75.0,1347.0,1286.0,1404.0
1422-2-25,Æråkstjørni,26676,7.92900630990176,61.0468672587467,0.9284,894.0,934.0,908.0,4,16.0,902.0,895.0,914.0
1422-3-18,Starsjøen,26677,8.01942403030433,60.9607640049147,9.7197,958.0,1080.0,1026.0,21,35.0,1026.0,1002.0,1056.0
1424-1-12,Fjellvatnet,26678,7.61692640923749,61.1503741218995,2.5386,997.0,1302.0,1197.0,7,119.0,1236.0,1124.0,1298.0
1424-1-14,Reinsgravtjørni,26679,7.79571977267114,61.1313006524043,1.0692,883.0,1321.0,1120.0,5,165.0,1200.0,972.0,1226.0
1424-2-11,HOH 1430,26680,7.65529290113022,61.4037854257795,1.4117,1472.0,1737.0,1605.0,7,87.0,1631.0,1536.0,1662.0
1424-2-30,Hyttedalsvatnet,26681,7.64188294197175,61.4283526939562,2.2439,1631.0,1883.0,1749.0,8,83.0,1744.0,1706.0,1815.0
1426-1-6,HOH 1335,26682,7.67450991015068,61.4510668971243,0.3203,1469.0,1677.0,1593.0,4,83.0,1612.0,1542.0,1663.0
1426-1-22,HOH 1475,26683,7.43575896423809,61.7019252491364,0.32,1871.0,1899.0,1885.0,2,14.0,1885.0,1878.0,1892.0
1426-1-23,Røykjedalsvatnet,26684,7.16541693138788,61.6042576716009,3.4443,2809.0,3199.0,2963.0,10,121.0,2955.0,2856.0,3050.0
1426-2-13,HOH 1488,26685,8.29011285773043,61.4346213893816,3.0388,1431.0,1732.0,1548.0,9,94.0,1538.0,1474.0,1596.0
1426-2-22,Nedre Mjølkedalstjørn,26686,8.21831399443475,61.4619104480009,7.2992,1431.0,1907.0,1662.0,16,166.0,1660.0,1498.0,1830.0
1426-3-19,Åsetvatnet,26687,7.58365037048346,61.5504899961755,29.8541,1460.0,2502.0,1969.0,46,213.0,1981.0,1859.0,2101.0
1428-1-18,Tobbedalsvatnet,26688,5.46677613765058,61.4254789800456,0.5726,3543.0,3614.0,3590.0,3,33.0,3613.0,3578.0,3613.0
1428-2-32,Sætrevatnet,26689,4.95958652306786,61.3241519943837,5.0764,2177.0,2417.0,2302.0,13,70.0,2280.0,2252.0,2361.0
1428-3-7,Hærlandsvatnet,26690,4.91168230237514,61.3608618124539,10.1366,2235.0,2492.0,2347.0,21,72.0,2339.0,2288.0,2391.0
1429-2-10,Botnatjørna,26691,5.33489855149464,61.2939993150606,1.599,2953.0,3027.0,2984.0,7,27.0,2980.0,2962.0,3003.0
1430-1-13,Jakobsvatnet,26692,5.9374468644201,61.2891269455416,0.462,3615.0,3821.0,3714.0,3,84.0,3708.0,3661.0,3764.0
1430-1-65,HOH 520,26693,5.87385303493619,61.3576670863479,0.2214,2353.0,2492.0,2440.0,4,53.0,2457.0,2422.0,2475.0
1431-2-5,Gjesdalsvatnet,26694,6.22014896073301,61.4671421450816,2.7023,2261.0,2809.0,2531.0,11,144.0,2510.0,2439.0,2621.0
1431-2-26,HOH 1308,26695,6.66134864136841,61.5409633363763,1.4463,3861.0,4957.0,4249.0,8,328.0,4166.0,4029.0,4367.0
1431-2-35,Håheimsvatnet,26696,6.51171573539298,61.5956580049153,26.923,2051.0,3979.0,2982.0,45,595.0,2988.0,2427.0,3506.0
1431-4-6,Jølstravatnet,26698,6.11313580017648,61.4922847836443,383.3484,1511.0,5279.0,2847.0,461,802.0,2719.0,2250.0,3369.0
1432-1-7,Nordvatnet,26699,6.12281124271671,61.5703704405491,1.584,3321.0,3576.0,3461.0,6,94.0,3498.0,3383.0,3520.0
1432-1-25,Nes-Isvatnet,26700,6.32051304309099,61.4345700632836,1.202,2221.0,2409.0,2299.0,4,73.0,2282.0,2238.0,2342.0
1432-3-15,Gjerlands-Isvatnet,26701,6.32811582750205,61.4452296143094,8.5342,2154.0,2444.0,2321.0,17,88.0,2331.0,2265.0,2393.0
1433-1-37,Svartevatnet,26702,5.69083237654391,61.5519283944457,0.8288,2853.0,2980.0,2915.0,4,45.0,2913.0,2895.0,2933.0
1433-3-23,Trodalsvatnet,26703,5.96726965595724,61.5573176033057,6.8801,3291.0,3638.0,3424.0,15,103.0,3413.0,3337.0,3518.0
1438-2-23,L. Snønykevatnet,26704,5.56568681088468,61.7804738667596,1.4849,3808.0,4087.0,3992.0,5,103.0,4040.0,3953.0,4073.0
1438-2-59,Sørdalsvatnet,26705,5.02398958108044,61.7071376819082,3.3443,2668.0,3165.0,2913.0,9,164.0,2936.0,2767.0,2969.0
1438-3-1,Handklevatnet,26706,5.24820861038761,61.678403504377,8.7977,3949.0,4655.0,4329.0,17,166.0,4349.0,4224.0,4399.0
1441-3-29,Dalsbøvatnet,26707,5.16846153272747,62.1613892462491,21.2245,2102.0,2395.0,2251.0,34,83.0,2243.0,2173.0,2315.0
1443-1-40,Byrjevatnet,26708,6.18494528650878,62.0037939543924,1.4487,2469.0,2717.0,2575.0,8,82.0,2560.0,2518.0,2634.0
1445-2-3,Vardevatnet,26709,6.27372590372235,61.720690123899,1.7153,2215.0,2610.0,2405.0,8,126.0,2388.0,2317.0,2502.0
1445-2-8,Skjerdalsvatnet,26710,5.92921915197772,61.8062119599196,16.35,3444.0,4998.0,4094.0,30,433.0,4007.0,3722.0,4312.0
1445-2-9,Blådalsvatnet,26711,6.33410599809383,61.6589327007164,2.5943,2506.0,2738.0,2650.0,8,86.0,2682.0,2600.0,2722.0
1449-4-2,Lovatnet,26712,6.88921253581977,61.8599582698113,233.8669,1377.0,4733.0,2472.0,283,792.0,2216.0,1927.0,2921.0
1502-1-25,Årsetvatn,26713,7.52861894701805,62.7265969248412,6.8795,1587.0,1985.0,1787.0,16,127.0,1756.0,1705.0,1889.0
1504-1-13,Svartevatnet,26714,6.5411382118362,62.4570023829693,0.647,1980.0,2064.0,2031.0,5,28.0,2035.0,2029.0,2046.0
1511-1-7,Vassdalsvatnet,26715,5.67546404416916,62.0211140562317,0.3313,2838.0,2943.0,2878.0,4,41.0,2865.0,2845.0,2898.0
1511-3-13,Myrkevatnet,26716,5.82003644722039,62.1340848989644,2.7229,2820.0,3098.0,2951.0,9,99.0,2909.0,2874.0,3074.0
1519-3-10,Rotevatnet,26717,6.09388591148653,62.144170987708,30.5321,1907.0,2631.0,2268.0,48,192.0,2257.0,2114.0,2431.0
1520-1-5,Urdvatn,26718,6.74599396818827,62.1473713468129,14.138,1903.0,2357.0,2111.0,28,117.0,2118.0,2012.0,2181.0
1524-2-17,Gullakoppen,26719,7.28540372206027,62.3350154347328,1.5461,1555.0,1722.0,1663.0,5,59.0,1664.0,1663.0,1708.0
1525-1-12,Nykkjevatn,26720,6.91846805594164,62.1355160546594,0.8055,1527.0,1602.0,1579.0,5,27.0,1591.0,1579.0,1594.0
1525-2-601,Heimste Vesteråsvatnet,26721,7.30282613037987,62.1217995519359,6.7734,1831.0,2281.0,2027.0,17,122.0,2000.0,1934.0,2074.0
1526-2-13,Litlevatnet,26723,7.32092853129273,62.4348907957255,3.2934,2008.0,2179.0,2071.0,7,59.0,2060.0,2017.0,2108.0
1529-3-5,Engsetvatnet,26724,6.61813664026593,62.5312771867335,40.2393,1565.0,2087.0,1741.0,59,131.0,1697.0,1638.0,1829.0
1535-2-10,S. Oterskarvatn,26725,6.85621828484595,62.5841430192555,0.8695,2135.0,2162.0,2149.0,4,11.0,2150.0,2142.0,2158.0
1539-1-1,HOH 1060,26726,8.02386039893699,62.5186461471423,0.6291,1613.0,1944.0,1770.0,5,112.0,1735.0,1722.0,1837.0
1539-1-3,Kalkdhøtjørni,26727,8.16125160764878,62.3636350935404,4.9215,1121.0,1376.0,1237.0,12,67.0,1227.0,1205.0,1269.0
1539-2-6,Øspevatn,26728,7.25505398205574,62.506517461351,1.8023,2450.0,2575.0,2507.0,6,46.0,2508.0,2465.0,2538.0
1539-2-11,Kråkenesvatna,26729,7.78654421459835,62.4454293288804,6.5776,1327.0,1604.0,1449.0,14,85.0,1440.0,1382.0,1517.0
1543-1-2,Klappvatn,26730,8.05890391273954,62.7977060762102,1.4595,1671.0,1769.0,1712.0,6,35.0,1708.0,1681.0,1736.0
1543-2-7,Nordre Isløyptjørna,26731,8.31715042157198,62.3596576428447,5.9436,1099.0,1385.0,1212.0,14,79.0,1195.0,1158.0,1232.0
1563-1-4,Meskardvatnet,26732,8.93377498869735,62.6811730591234,5.5417,1510.0,1966.0,1750.0,11,156.0,1786.0,1632.0,1881.0
1563-2-1,Nedre Håkådalsvatnet,26733,8.65850883924818,62.4669127375678,14.607,977.0,1315.0,1148.0,24,94.0,1134.0,1066.0,1229.0
1563-3-6,Storvatnet,26734,8.8200926572025,62.5330621614422,8.9339,815.0,1164.0,1026.0,20,109.0,1054.0,980.0,1117.0
1566-1-9,Grytvatnet,26735,9.09322499762562,63.0623992591957,1.5111,1331.0,1442.0,1396.0,7,38.0,1403.0,1374.0,1423.0
1566-1-10,Damtjørna,26736,8.88741397108896,63.0398034412314,1.0035,1675.0,1735.0,1705.0,8,24.0,1700.0,1687.0,1733.0
1566-2-16,Holmevatnet,26737,9.00898547447897,63.0731998280514,1.6246,1514.0,1674.0,1594.0,6,60.0,1598.0,1538.0,1644.0
1569-1-8,Vasslivatnet,26738,8.58553791562133,63.2885192135534,0.8881,1635.0,1795.0,1723.0,5,54.0,1741.0,1695.0,1746.0
1569-2-4,Åkvikvatnet,26739,8.4738371180709,63.3385251290023,1.3341,1380.0,1452.0,1416.0,6,28.0,1413.0,1392.0,1442.0
1569-2-14,Rostolvatnet,26740,8.65754195903969,63.3051347165785,0.8913,1854.0,1993.0,1930.0,4,58.0,1937.0,1883.0,1984.0
1572-2-15,Linnvågvatnet,26741,7.95347225822943,63.1805033069827,16.4743,1443.0,1946.0,1674.0,30,152.0,1682.0,1536.0,1781.0
1612-3-12,Heimsvatnet,26742,9.04636208969542,63.4144907965878,10.4447,1398.0,1734.0,1529.0,20,107.0,1501.0,1450.0,1588.0
1613-1-18,Botntjørna,26743,9.34734109065321,63.4256359401033,0.8021,1817.0,2036.0,1914.0,4,82.0,1902.0,1856.0,1960.0
1613-2-7,HOH 676,26744,9.37906977225834,63.4160420933494,0.9988,1928.0,2059.0,2007.0,4,52.0,2020.0,1978.0,2050.0
1617-1-1,Langvatnet,26745,9.05426137529128,63.5885244176172,4.1454,1214.0,1322.0,1265.0,10,35.0,1262.0,1239.0,1287.0
1617-1-4,Husvatnet,26746,8.96488268668291,63.5048063953416,1.6352,1354.0,1367.0,1361.0,5,4.0,1363.0,1360.0,1363.0
1617-1-10,Ulvvågvatnet,26747,9.09830758680246,63.5872495798582,0.6286,1195.0,1229.0,1211.0,3,14.0,1208.0,1202.0,1219.0
1617-1-12,HOH 40,26748,8.77869827572653,63.6306073667628,0.484,1257.0,1282.0,1272.0,4,10.0,1275.0,1269.0,1279.0
1617-2-2,Jevikvatnet,26749,8.97380612425423,63.6324534679884,1.0018,1110.0,1276.0,1221.0,5,60.0,1246.0,1207.0,1265.0
1617-2-6,HOH 66,26750,8.67720568175534,63.5516741963997,3.4343,1448.0,1533.0,1481.0,9,23.0,1475.0,1474.0,1492.0
1620-1-2,Rådalsvatnet,26751,8.76436429587996,63.7385563966858,0.8793,1222.0,1253.0,1238.0,4,12.0,1238.0,1230.0,1246.0
1620-2-13,Tuvnesvatnet,26752,8.63837315413265,63.7273936182757,7.9782,1231.0,1282.0,1256.0,17,12.0,1255.0,1249.0,1263.0
1622-1-17,Holtvatnet,26753,9.62080318581086,63.5517062475002,1.6094,1466.0,1636.0,1570.0,5,70.0,1619.0,1508.0,1623.0
1622-2-5,Lauvvatnet,26754,9.50820186358326,63.50368521876,5.2836,1577.0,1770.0,1645.0,14,56.0,1638.0,1612.0,1656.0
1624-1-23,Sørvikvatnet,26755,9.86706271564589,63.6252484502264,1.7489,1244.0,1342.0,1303.0,7,31.0,1307.0,1288.0,1326.0
1627-2-12,Ryvatnet,26756,9.7366057371221,63.7826320012563,7.4071,975.0,1291.0,1180.0,18,76.0,1185.0,1143.0,1226.0
1630-2-14,Holmvatnet,26757,10.347018774667,64.0682991011567,2.6175,2169.0,2391.0,2311.0,8,64.0,2333.0,2281.0,2348.0
1630-2-20,Torsteinvatnet,26758,10.4640766147552,64.1239304749309,4.6792,2225.0,2415.0,2325.0,11,65.0,2313.0,2275.0,2388.0
1632-2-1,Storheitjørnin,26759,10.704278688883,64.135994760125,3.1059,2297.0,2476.0,2397.0,11,56.0,2406.0,2367.0,2437.0
1634-1-8,Sattja,26760,9.27329806143047,62.3993661645764,0.6424,790.0,792.0,791.0,2,1.0,791.0,791.0,792.0
1634-1-14,HOH 950,26761,9.51471864024725,62.7367191162911,0.4785,888.0,1005.0,924.0,5,42.0,910.0,895.0,924.0
1634-1-20,HOH 1057,26762,8.94213587863887,62.6999718251919,1.8235,1906.0,2131.0,2050.0,7,76.0,2053.0,2011.0,2118.0
1634-3-2,Orkelsjøen,26763,9.89100191987273,62.5010712880255,14.3955,607.0,817.0,713.0,26,48.0,714.0,695.0,739.0
1634-3-5,Ångardsvatnet,26764,9.21129783353537,62.6659711749905,86.0202,843.0,2094.0,1338.0,118,254.0,1295.0,1156.0,1453.0
1636-1-6,Litleholtvatnet,26765,9.46662166399075,63.0726062853858,0.539,1252.0,1311.0,1286.0,3,25.0,1294.0,1273.0,1302.0
1636-1-15,Snipvatna,26766,9.52946562764068,62.9908035051816,3.3379,1093.0,1325.0,1227.0,9,75.0,1236.0,1182.0,1281.0
1638-1-16,Midtvatnet,26767,9.38844137085977,63.2663142363822,2.2405,1919.0,2016.0,1969.0,9,36.0,1972.0,1934.0,2004.0
1638-2-3,Husdalsvatnet,26768,9.85304355655194,63.3599609748974,3.9067,845.0,1046.0,939.0,12,60.0,924.0,903.0,980.0
1640-1-9,HOH 808,26769,11.8338943612188,62.3932330654666,1.1282,322.0,486.0,443.0,4,70.0,482.0,442.0,483.0
1640-1-13,Monstjørna,26770,11.3821358477724,62.6648352355597,0.2682,507.0,565.0,533.0,3,24.0,526.0,517.0,546.0
1640-1-22,Heggrøsttjørnane,26771,12.0374932530784,62.3560422887996,2.3592,287.0,333.0,304.0,9,13.0,299.0,298.0,311.0
1640-2-17,Store Fjellsjøen,26772,11.2797081670348,62.6988552111359,5.1036,572.0,798.0,709.0,12,66.0,713.0,662.0,764.0
1640-2-19,Vedtjørna,26773,11.4927667065934,62.638640440615,0.9656,502.0,598.0,545.0,6,38.0,541.0,510.0,577.0
1640-3-3,Djupsjøen,26774,11.4892584968737,62.5989987394037,115.2808,412.0,598.0,489.0,152,32.0,484.0,467.0,506.0
1640-3-4,Styggsjøane,26775,12.1682052195872,62.3486516796197,5.3897,295.0,349.0,326.0,13,16.0,322.0,316.0,343.0
1640-4-1,Aursunden,26776,11.4623391945095,62.678543556959,853.4777,457.0,1409.0,736.0,966,184.0,710.0,583.0,842.0
1648-1-3,Brekkesetertj.,26777,10.1437885643501,63.0320680800897,0.3899,656.0,694.0,677.0,4,14.0,680.0,674.0,683.0
1648-1-11,Vardetjørna,26778,10.0421931189945,62.9789867838319,0.3688,889.0,1019.0,956.0,3,53.0,959.0,924.0,989.0
1648-2-15,Langvatnet,26779,10.0552010012861,62.9260560735634,2.0138,552.0,792.0,667.0,10,81.0,666.0,602.0,716.0
1653-2-10,Krokuttjørna,26780,10.0603107270519,63.0286520055503,3.0943,773.0,867.0,821.0,9,30.0,828.0,810.0,835.0
1653-3-10,Benna,26781,10.251722083708,63.1941166763067,25.3497,610.0,739.0,655.0,45,28.0,651.0,638.0,664.0
1657-3-9,Laugen,26782,10.0489294632992,63.2809257668109,95.6048,532.0,806.0,711.0,127,52.0,715.0,688.0,748.0
1702-1-6,Giskåstjørna,26783,11.8972752682006,64.0342306430133,4.4059,975.0,1292.0,1107.0,12,95.0,1101.0,1031.0,1156.0
1702-1-17,Sandtjern,26784,11.5804872533633,64.2204339543994,0.6074,1285.0,1304.0,1294.0,4,7.0,1294.0,1290.0,1298.0
1702-2-17,Jenshusvatnet,26785,11.4395879069792,64.1726375106873,5.1807,1089.0,1258.0,1134.0,12,42.0,1125.0,1109.0,1142.0
1703-1-5,Fjellsettjørna,26786,11.5652596110031,64.3892806474069,0.6511,1362.0,1459.0,1393.0,4,39.0,1376.0,1366.0,1403.0
1703-2-1,Gravvatnet,26787,11.7224329095,64.6019264529533,3.6279,1577.0,1888.0,1700.0,11,106.0,1683.0,1612.0,1781.0
1711-3-8,Fundsjøen,26788,11.7872840883794,63.4792518439808,60.9349,989.0,1684.0,1320.0,88,192.0,1330.0,1154.0,1495.0
1711-4-2,Fjergen,26789,11.9108434807417,63.4334207053564,148.9075,961.0,1650.0,1352.0,197,145.0,1337.0,1258.0,1464.0
1717-2-6,Liavatnet,26790,10.7657055674392,63.5925003714288,8.4201,721.0,923.0,870.0,17,41.0,873.0,863.0,891.0
1718-1-8,Ø. Ljøsvatn,26791,10.4811366694874,63.6738029061305,1.4516,1503.0,1596.0,1547.0,5,31.0,1548.0,1528.0,1562.0
1718-1-9,Svarttjønn,26792,10.7989207618514,63.7348681061069,0.898,1248.0,1336.0,1289.0,4,34.0,1287.0,1263.0,1313.0
1718-1-10,Storskartjørna,26793,10.7381132116536,63.7162241028824,0.3024,1210.0,1245.0,1228.0,2,17.0,1228.0,1219.0,1236.0
1718-1-15,Aunbyvatn,26794,10.4164364432715,63.6661782824759,6.0507,1528.0,1698.0,1610.0,15,46.0,1609.0,1580.0,1640.0
1721-2-13,Søre Vassdalstjørna,26795,12.2940850652757,63.7354282083581,0.8917,1070.0,1143.0,1103.0,4,33.0,1099.0,1071.0,1131.0
1721-3-15,Storbellingen,26796,12.2786984714779,63.6982980896914,17.7044,1069.0,1271.0,1146.0,32,49.0,1143.0,1102.0,1180.0
1723-2-5,Røsvatnet,26797,10.8466356935401,63.8541025123846,4.1043,1234.0,1377.0,1305.0,10,46.0,1302.0,1271.0,1335.0
1724-2-22,Bogatjørna,26798,10.5711483294577,63.854027617,0.5562,1844.0,1900.0,1872.0,2,28.0,1872.0,1858.0,1886.0
1725-1-20,Øvre Steintjørna,26799,11.1135128429274,64.3057316543725,0.3594,1649.0,1679.0,1664.0,4,14.0,1664.0,1650.0,1678.0
1725-2-18,Øver-Kallhammarvatnet,26800,11.1411215659469,64.3251978097699,1.2921,1600.0,1758.0,1680.0,8,41.0,1680.0,1668.0,1694.0
1725-2-21,Sæterlangvatnet,26801,11.0399457918178,64.3050336173114,0.8448,1546.0,1608.0,1584.0,4,23.0,1591.0,1575.0,1600.0
1736-1-22,Fiskløysa,26802,12.4211794210006,64.0553250839381,0.2642,1770.0,1790.0,1780.0,2,10.0,1780.0,1775.0,1785.0
1736-1-27,HOH 617,26803,13.1608722816679,64.1992747578672,2.2257,1403.0,1507.0,1462.0,7,42.0,1487.0,1419.0,1499.0
1736-2-15,Hattjørna,26804,12.4606375793273,64.004881965352,1.6626,1799.0,2045.0,1953.0,5,89.0,1971.0,1922.0,2029.0
1736-5-1,Snåsavatnet,26805,11.6354827484714,64.082347625791,1434.8334,727.0,1862.0,1156.0,1594,187.0,1136.0,1017.0,1251.0
1738-1-19,Grønlitjørna,26806,13.8449808517171,64.3075992201062,3.3758,920.0,1050.0,986.0,9,44.0,977.0,950.0,1036.0
1738-1-21,Storolatjørnin,26807,13.4476244752851,64.413231892213,1.3573,884.0,1039.0,946.0,6,55.0,938.0,897.0,980.0
1738-2-12,Koitjørna,26808,13.7007829256892,64.3373367473076,10.4523,818.0,977.0,889.0,24,42.0,877.0,861.0,923.0
1738-3-6,Store Strivatnet,26809,13.9812080478774,64.2415970486673,20.4866,1009.0,1350.0,1170.0,35,78.0,1163.0,1110.0,1224.0
1738-3-7,Djupvatnet,26810,13.56223411735,64.4217897866122,1.0035,687.0,752.0,716.0,4,25.0,712.0,698.0,730.0
1738-3-13,Langvatnet,26811,13.7555978047832,64.0726322219573,29.416,828.0,1136.0,939.0,48,70.0,922.0,890.0,986.0
1738-4-1,Rengen,26812,13.897386095701,64.1343587028572,982.8125,602.0,1769.0,1055.0,1092,286.0,1006.0,822.0,1278.0
1739-1-12,HOH 654,26813,13.3593758688884,64.8750305222228,0.1611,1526.0,1552.0,1539.0,2,13.0,1539.0,1532.0,1545.0
1739-1-18,Laagkoenjuenientjonne,26814,13.7407870985953,64.8543466926291,0.5316,1442.0,1455.0,1449.0,4,5.0,1451.0,1446.0,1454.0
1739-1-28,Okstjørna,26815,13.5606033080038,64.8458706068515,0.4826,963.0,1024.0,985.0,5,22.0,984.0,967.0,989.0
1739-2-4,HOH 886,26816,14.0290191869116,64.9526497014281,0.4559,1328.0,1356.0,1338.0,4,11.0,1335.0,1330.0,1343.0
1739-2-14,Måarenjaevrieh,26817,13.8958333224417,64.9685258695578,1.5489,1332.0,1393.0,1361.0,6,21.0,1357.0,1348.0,1376.0
1739-2-19,Øvre Blåmurtjørnin,26818,13.1690534340096,64.5374569135829,1.335,1575.0,1775.0,1708.0,4,78.0,1741.0,1693.0,1756.0
1739-3-3,Vestre Rekaren,26819,13.6456202479533,65.0507525434842,14.2121,1369.0,1767.0,1521.0,27,112.0,1497.0,1427.0,1617.0
1739-5-1,Tunnsjøen,26820,13.2165381731264,64.6902456270979,388.071,731.0,1804.0,1125.0,464,266.0,1044.0,912.0,1289.0
1740-2-9,Storskorovatn,26821,13.0568309569618,64.6484024655416,16.4819,1330.0,1821.0,1599.0,28,144.0,1592.0,1480.0,1726.0
1740-2-10,Krokvatnet,26822,13.0197500686911,65.0543964406979,5.3414,2542.0,3145.0,2786.0,15,157.0,2708.0,2691.0,2885.0
1740-2-39,Grøndalsvatnet,26823,12.9583949544192,64.6208931792154,30.0954,1604.0,1956.0,1801.0,47,80.0,1813.0,1751.0,1854.0
1742-1-1,Liatjørnin,26824,12.2517450871505,64.3579505440013,0.2141,1530.0,1578.0,1554.0,2,24.0,1554.0,1542.0,1566.0
1742-1-7,HOH 824,26825,12.9532324784845,64.519733595181,0.6106,2291.0,2305.0,2298.0,2,7.0,2298.0,2295.0,2301.0
1742-1-24,Røyrtjørna,26826,12.4560873105557,64.5828549692525,1.511,1224.0,1316.0,1281.0,5,33.0,1284.0,1268.0,1311.0
1748-3-5,Kvernvikvatnet,26827,11.5244740734765,64.7344739367197,4.7759,1346.0,1495.0,1409.0,13,46.0,1399.0,1372.0,1462.0
1749-1-25,Erlandvatnet,26828,10.8049856306388,64.4528891584818,0.1894,1301.0,1393.0,1340.0,4,33.0,1333.0,1323.0,1350.0
1749-3-12,Mjosundvatnet,26829,10.9739189934022,64.5862218051575,0.5851,1220.0,1283.0,1248.0,4,24.0,1245.0,1230.0,1263.0
1751-1-4,Reinbærlivatnet,26830,12.2628432448927,64.9079661854731,1.6821,1977.0,2328.0,2168.0,7,101.0,2175.0,2130.0,2219.0
1751-1-13,Sætertjørna,26831,12.1157860564024,64.902754859165,2.0817,2229.0,2479.0,2337.0,8,76.0,2324.0,2296.0,2358.0
1751-1-23,Langvatn,26832,11.9657737187791,64.8704510165833,0.8203,2079.0,2239.0,2187.0,4,64.0,2216.0,2171.0,2232.0
1751-2-2,Småholmvatnet,26833,11.6287786774974,64.7265149241136,0.3341,1404.0,1462.0,1440.0,3,26.0,1455.0,1429.0,1458.0
1751-2-7,Vasslivatnet,26834,11.7132261886122,64.9909840067735,1.0652,1575.0,1651.0,1608.0,4,28.0,1603.0,1590.0,1621.0
1804-3-17,Sørvatnet,26835,14.7601969643424,67.4825041763917,15.1524,1183.0,1639.0,1331.0,29,115.0,1304.0,1235.0,1393.0
1805-1-7,Vestfjordvatnan,26836,17.7221417091185,68.4124428188205,4.1848,1431.0,1573.0,1508.0,11,39.0,1503.0,1486.0,1540.0
1805-1-14,Søsterbekkvatnan,26837,17.9477915733429,68.4362887118641,3.8779,1345.0,1481.0,1427.0,10,46.0,1442.0,1396.0,1468.0
1805-3-4,Storvatnet,26838,17.4277154582448,68.3687960065641,56.9841,1146.0,1599.0,1340.0,77,107.0,1319.0,1251.0,1415.0
1811-3-6,Myrmarkvatnet,26839,12.4137212202475,65.2830522189959,7.7964,1716.0,1939.0,1803.0,18,53.0,1792.0,1770.0,1817.0
1812-1-12,Gjerdevatnet,26840,12.2210891909285,65.3031057392877,2.1126,1503.0,1646.0,1578.0,6,57.0,1578.0,1526.0,1634.0
1813-2-5,Tilremsvatnet,26841,12.264743767934,65.5133516940634,3.384,1343.0,1489.0,1417.0,9,53.0,1401.0,1383.0,1461.0
1820-1-20,Helknavatnet,26842,12.5260326084014,65.9261835156014,0.9486,1619.0,1781.0,1704.0,5,65.0,1682.0,1661.0,1778.0
1824-1-3,HOH 864,26843,13.358845513597,66.1142500558375,0.7442,3269.0,3528.0,3388.0,5,89.0,3406.0,3319.0,3417.0
1824-1-6,HOH 821,26844,13.4073330596489,66.1233153717642,0.2829,3150.0,3287.0,3200.0,4,53.0,3182.0,3163.0,3219.0
1824-1-17,Kottjørna,26845,13.73145512286,65.8326924318303,0.7858,2018.0,2104.0,2067.0,5,30.0,2067.0,2054.0,2093.0
1824-2-25,HOH 444,26846,12.9559189689194,65.6909450060203,3.8156,2360.0,2701.0,2575.0,11,120.0,2643.0,2480.0,2683.0
1825-1-5,Sørtjørna,26847,13.5405651098488,65.3540697451819,0.9894,1634.0,1707.0,1672.0,4,29.0,1674.0,1649.0,1697.0
1825-2-23,Litle Holmvatnet,26848,13.2435576213827,65.2528072014412,1.8496,1637.0,2089.0,1888.0,5,164.0,1932.0,1769.0,2012.0
1825-4-4,Store Majavatnet,26849,13.3108366232067,65.1942433382511,85.6968,1088.0,1851.0,1371.0,113,187.0,1352.0,1207.0,1511.0
1826-1-8,HOH 785,26850,14.5197646567947,65.6613768547636,1.389,1786.0,1891.0,1830.0,6,44.0,1808.0,1800.0,1871.0
1826-1-10,HOH 822,26851,13.8609038753352,65.1715302702254,0.3805,1946.0,1987.0,1965.0,3,17.0,1963.0,1954.0,1975.0
1826-3-24,Fisklausvatnet,26852,14.2985349034178,65.3961614578477,19.6718,988.0,1173.0,1095.0,34,53.0,1092.0,1056.0,1144.0
1826-4-3,Unkervatnet,26853,14.1377732248434,65.5138612962238,513.1217,622.0,1361.0,902.0,585,148.0,895.0,789.0,987.0
1826-5-1,Røssvatnet,26854,13.7937972150216,65.8579312648221,1505.4709,1040.0,4054.0,1650.0,1646,423.0,1588.0,1313.0,1858.0
1833-1-13,HOH 752,26855,15.0991457374158,66.3676996127861,1.5378,1228.0,1409.0,1328.0,6,63.0,1337.0,1283.0,1379.0
1833-1-15,Steinbekktjørna,26856,14.3742119429199,66.3257618847568,3.5135,1227.0,1294.0,1256.0,9,20.0,1251.0,1238.0,1267.0
1833-1-19,HOH 1034,26857,15.0935476854823,66.5143230590271,0.6531,1328.0,1394.0,1359.0,4,23.0,1358.0,1348.0,1370.0
1833-3-1,Store Blerekvatnet,26858,15.0906663432358,66.3458823730195,74.1886,1123.0,2152.0,1624.0,101,236.0,1619.0,1452.0,1818.0
1836-1-21,HOH 662,26859,13.6874342890175,66.6621363693916,1.006,3366.0,4268.0,3639.0,5,326.0,3502.0,3436.0,3624.0
1836-2-14,Storvatnet,26860,13.2212401497243,66.6544289042241,1.5792,1763.0,1886.0,1829.0,5,41.0,1825.0,1816.0,1854.0
1836-3-2,Gjervalvatnet,26861,13.4665500939321,66.4791390856986,33.3705,2849.0,4636.0,3424.0,54,429.0,3351.0,3043.0,3677.0
1837-3-3,Spilderdalsvatnet,26862,13.8272816926993,66.871511221014,18.7145,2466.0,3593.0,3101.0,33,299.0,3102.0,2941.0,3342.0
1840-1-1,HOH 757,26863,15.8168823851635,67.0583601612097,4.4133,1318.0,1558.0,1437.0,10,74.0,1426.0,1378.0,1505.0
1840-1-4,HOH 725,26864,15.6445406830566,67.0520790283467,0.8809,1527.0,1568.0,1552.0,4,16.0,1557.0,1543.0,1566.0
1840-3-7,Solvågvatnet,26865,15.5103506137522,66.8463585680788,13.4257,1031.0,1473.0,1234.0,26,117.0,1210.0,1149.0,1286.0
1841-1-18,HOH 938,26866,16.2751464516418,67.0539787411134,1.7988,1245.0,1409.0,1352.0,6,68.0,1392.0,1297.0,1407.0
1842-2-6,HOH 162,26867,14.9824599551135,67.0840773335076,144.6647,967.0,1348.0,1137.0,183,82.0,1122.0,1074.0,1197.0
1842-2-7,Storoksvatnet,26868,15.0421718373751,66.9456488191857,3.0438,1061.0,1117.0,1087.0,9,20.0,1080.0,1075.0,1107.0
1842-3-14,HOH 472,26869,14.830890520609,67.1207136197305,8.5414,1480.0,1770.0,1626.0,17,98.0,1617.0,1542.0,1709.0
1845-2-2,Hurrejavrrazat,26870,16.3429194717959,67.5492953998517,12.1746,1432.0,2007.0,1763.0,24,168.0,1775.0,1629.0,1906.0
1845-2-21,HOH 903,26871,16.0505380640778,67.4319144674514,2.2178,1793.0,2083.0,1910.0,7,87.0,1886.0,1860.0,1945.0
1848-2-4,Synstelvvatn,26872,14.8959114320459,67.6945139838751,1.3615,1612.0,1703.0,1649.0,6,29.0,1644.0,1631.0,1659.0
1848-2-10,HOH 281,26873,15.5609589233668,67.8125623065342,1.9704,2072.0,2230.0,2174.0,6,53.0,2178.0,2157.0,2219.0
1848-2-15,Breiddalsvatnan,26874,15.2579649748142,67.8671490833679,2.1919,2025.0,2250.0,2116.0,6,74.0,2115.0,2057.0,2142.0
1849-2-3,Lilandsvatn,26875,15.515900148621,68.0712724592155,5.2537,1294.0,1355.0,1323.0,14,17.0,1319.0,1313.0,1332.0
1849-2-18,HOH 760,26876,16.3402833981017,67.7208247686912,8.9283,1789.0,2350.0,2047.0,18,161.0,2082.0,1911.0,2116.0
1849-3-18,Sandnesvatnet,26877,15.9258756154526,67.8614833847174,171.1507,1452.0,2343.0,1814.0,216,242.0,1773.0,1603.0,2022.0
1850-2-12,HOH 880,26878,16.9542683475394,67.9983024309403,5.6938,1691.0,2657.0,2089.0,13,275.0,2102.0,1895.0,2291.0
1850-2-19,Storvatnet,26879,16.5618132727698,67.9675206032281,7.4826,1366.0,1718.0,1559.0,16,90.0,1560.0,1517.0,1627.0
1850-3-11,Hievstenjavri,26880,16.5412580488845,67.7692426770551,18.2849,1054.0,1576.0,1285.0,29,115.0,1288.0,1203.0,1356.0
1853-3-13,Lavangsvatn,26881,16.6572857099881,68.4857891599546,76.873,1197.0,1837.0,1377.0,111,138.0,1327.0,1284.0,1409.0
1854-2-16,Stopålvatnet,26882,16.5855055308686,68.3635602754598,2.4311,1223.0,1395.0,1289.0,7,58.0,1297.0,1237.0,1316.0
1866-1-2,Ulvøyvatn,26883,15.0286981701036,68.3550304637343,0.2953,,,,0,,,,
1866-1-11,Austpollvatnan,26884,14.9064105843659,68.3864040933184,5.575,1866.0,2187.0,2059.0,15,84.0,2058.0,1995.0,2128.0
1870-2-1,Langvatnet,26885,15.0498265311385,68.6643960341742,7.0409,1762.0,1951.0,1852.0,17,47.0,1855.0,1805.0,1882.0
1870-2-20,Kjerringnesdalsvatn,26886,15.5343698268842,68.6618995841296,27.2235,1577.0,1972.0,1790.0,45,108.0,1788.0,1718.0,1891.0
1871-3-22,Storvatnet,26887,15.9551466074222,69.2660090989417,10.8572,1378.0,1569.0,1497.0,20,49.0,1517.0,1456.0,1534.0
1901-2-5,Botnvatn,26888,16.4012832997165,68.8310337914514,2.0071,1134.0,1184.0,1159.0,9,15.0,1163.0,1149.0,1167.0
1902-2-11,Storvatnet,26889,18.5777923441065,69.7787546176706,2.1812,1515.0,1647.0,1588.0,8,37.0,1585.0,1579.0,1598.0
1917-1-15,Juliusvatnet,26890,17.3328825092076,68.8519102207912,1.0572,1314.0,1395.0,1373.0,7,26.0,1379.0,1372.0,1390.0
1917-3-4,Skipsvatnet,26891,16.9713170004432,68.7775019642108,0.9791,1152.0,1175.0,1163.0,5,9.0,1158.0,1156.0,1174.0
1922-1-14,HOH 504,26892,19.7861200181109,68.4018990431031,2.9572,546.0,596.0,562.0,9,16.0,556.0,551.0,570.0
1922-2-10,Dalbergvatnet,26893,18.608734248672,68.7074124097768,0.3933,1137.0,1166.0,1154.0,4,11.0,1156.0,1147.0,1163.0
1924-1-2,Tømmertjørnet,26894,20.0788269628556,69.0110084339763,3.4533,1129.0,1280.0,1207.0,10,49.0,1211.0,1175.0,1236.0
1924-1-4,HOH 1044,26895,19.8496941426884,68.9039309560334,0.4953,792.0,945.0,856.0,4,62.0,845.0,801.0,900.0
1924-1-12,HOH 770,26896,20.0278298917213,68.8928416895392,4.5203,852.0,982.0,943.0,10,37.0,953.0,926.0,970.0
1924-2-4,Sætervatnet,26897,18.9557535548249,68.8171052703571,7.0966,1154.0,1383.0,1285.0,15,74.0,1306.0,1241.0,1344.0
1924-2-6,Fonnskardvatnet,26898,18.7234547937874,68.8853198646449,3.6027,1342.0,1580.0,1452.0,8,66.0,1442.0,1420.0,1480.0
1926-1-10,Femvatnan,26899,17.8292647243998,69.0941507616809,0.2701,1436.0,1576.0,1506.0,2,70.0,1506.0,1471.0,1541.0
1927-3-1,Kapervatnet,26900,17.4284599834921,69.2406970076258,37.8964,1616.0,2323.0,2011.0,56,184.0,2011.0,1877.0,2159.0
1927-3-2,Storvatnet,26901,17.685141177071,69.1882583314477,8.1955,1131.0,1270.0,1217.0,18,41.0,1231.0,1193.0,1251.0
1931-4-1,Finnfjordvatnet,26902,18.163689480284,69.2486348612027,87.2944,1003.0,1639.0,1181.0,120,150.0,1113.0,1081.0,1269.0
1933-3-3,Sagelvvatnet,26903,19.1224763658223,69.2116617571891,74.9239,736.0,1390.0,969.0,101,156.0,909.0,863.0,1084.0
1936-1-1,HOH 11,26904,19.9022421810886,70.1799589798852,0.1664,1223.0,1223.0,1223.0,1,0.0,1223.0,1223.0,1223.0
1939-1-3,HOH 1045,26905,20.8868446782611,69.2416148680145,0.4515,625.0,655.0,640.0,2,15.0,640.0,633.0,648.0
1939-1-9,Mallajavrrit,26906,20.3646503038438,69.0978056030201,0.4529,873.0,917.0,895.0,2,22.0,895.0,884.0,906.0
1939-1-13,HOH 905,26907,20.5706172682014,69.1409247747058,1.1747,590.0,682.0,626.0,6,33.0,619.0,598.0,647.0
1940-2-2,Vuoddojavrit,26908,21.1547258069387,69.501147642179,1.8618,621.0,845.0,775.0,7,77.0,813.0,751.0,822.0
1940-3-6,Goddejavri,26909,20.9641959178169,69.3371137582742,42.6558,622.0,965.0,771.0,66,86.0,775.0,695.0,835.0
1942-2-1,Doaresjavri,26910,21.1638599764345,69.4826622895431,1.2482,726.0,764.0,746.0,4,15.0,748.0,736.0,758.0
1942-2-8,Gahkkorjavri,26911,21.6524419551289,69.3423603283369,2.3988,499.0,540.0,516.0,8,16.0,512.0,500.0,531.0
1943-1-11,HOH 551,26912,22.2493284108605,69.9301828441053,0.8888,1095.0,1136.0,1116.0,6,13.0,1117.0,1110.0,1124.0
1943-2-12,Madenjånnejavri,26913,22.5237163743078,69.7280899983756,4.1839,903.0,995.0,955.0,14,26.0,957.0,939.0,976.0
2003-3-2,Oardujavri,26914,29.2629302151892,70.4877693786335,53.2883,588.0,834.0,733.0,77,52.0,740.0,718.0,763.0
2011-1-6,Amasjavri,26915,22.7998005217786,68.8806880911481,5.3877,322.0,375.0,358.0,14,13.0,359.0,353.0,367.0
2011-1-9,Njargajavri,26916,24.0496502663365,68.8975557808643,2.1018,311.0,414.0,373.0,9,27.0,371.0,364.0,391.0
2011-1-12,HOH 407,26917,24.1050283050646,68.8914221965995,0.2505,357.0,394.0,378.0,4,13.0,381.0,375.0,384.0
2011-1-16,HOH 537,26918,23.3781255130679,69.4916068949237,0.7687,412.0,500.0,466.0,5,29.0,475.0,469.0,476.0
2011-1-34,HOH 366,26919,23.5917004450692,69.3786078051657,0.5123,383.0,404.0,393.0,2,11.0,393.0,388.0,399.0
2011-1-41,Madiijavrit,26920,23.492819084154,68.7671885161242,0.4038,312.0,337.0,326.0,4,9.0,327.0,320.0,332.0
2011-1-51,HOH 376,26921,23.5121945062505,69.2878950052528,1.7156,387.0,411.0,397.0,6,8.0,395.0,392.0,402.0
2011-1-58,HOH 370,26922,24.6243372477914,68.9542088248197,0.7686,283.0,377.0,340.0,3,41.0,362.0,322.0,369.0
2011-1-66,HOH 381,26923,22.8677231415126,69.1129187476374,2.0736,361.0,392.0,374.0,9,9.0,371.0,367.0,381.0
2011-1-67,HOH 358,26924,23.5834892829403,69.1734675771815,0.2701,332.0,353.0,345.0,4,9.0,347.0,339.0,353.0
2011-2-4,Cuorvoncåkkavuoljavri,26925,23.7060100340558,69.6401838872442,0.686,410.0,496.0,450.0,4,39.0,448.0,412.0,486.0
2011-2-5,Gakkesjavri,26926,24.1371246755936,69.2372310201586,6.6307,397.0,441.0,430.0,17,11.0,433.0,425.0,439.0
2011-2-12,Cuolbmajavri,26927,22.7671892476261,69.3353596342163,7.0636,416.0,523.0,477.0,15,33.0,486.0,458.0,504.0
2011-2-13,HOH 385,26928,24.3497344172114,68.9227429735269,0.5003,345.0,354.0,349.0,4,3.0,348.0,347.0,350.0
2011-2-14,HOH 446,26929,23.5894197633358,68.9649709057117,0.2741,325.0,402.0,366.0,4,33.0,369.0,337.0,398.0
2011-2-15,HOH 356,26930,24.948350457748,68.8613818956433,2.7517,361.0,394.0,381.0,9,11.0,384.0,373.0,390.0
2011-2-18,HOH 424,26931,24.6207156824761,68.780387819216,1.1051,363.0,389.0,379.0,4,11.0,383.0,373.0,389.0
2011-2-20,Vuovdevuonjaljavri,26932,23.639186819456,69.6205359531621,2.2536,406.0,508.0,455.0,8,41.0,451.0,415.0,498.0
2011-2-31,Vuovdeluobbal,26933,23.6653806930389,69.2208272609957,5.5668,288.0,355.0,333.0,14,15.0,334.0,331.0,341.0
2011-2-43,HOH 376,26934,24.3654865599872,68.989063482625,7.5478,308.0,380.0,352.0,16,20.0,356.0,336.0,368.0
2011-2-44,Rebmesluobbalat,26935,22.9746521988526,68.7298025002285,2.2956,368.0,457.0,421.0,8,28.0,421.0,408.0,439.0
2011-3-5,Saiva,26936,23.3442459099091,69.399924880282,27.9321,350.0,502.0,426.0,44,42.0,421.0,397.0,461.0
2011-3-11,Mollejusgåbejavri,26937,22.3716975642818,69.4237496551765,16.5725,531.0,592.0,568.0,33,14.0,569.0,561.0,576.0
2011-3-13,Jårgajavri,26938,22.8644255066629,69.2292393068302,21.9707,366.0,515.0,412.0,42,34.0,405.0,392.0,420.0
2012-1-26,HOH 542,26939,22.4378933588318,69.9678513924227,0.3175,1035.0,1073.0,1054.0,2,19.0,1054.0,1044.0,1063.0
2012-1-33,HOH 745,26940,22.6027474255224,69.9723521884961,0.1061,831.0,923.0,876.0,4,33.0,874.0,863.0,887.0
2012-1-38,Tørrelvvatna,26941,22.6475386999372,69.8145529940961,1.9626,746.0,851.0,793.0,6,38.0,789.0,762.0,821.0
2012-1-53,HOH 230,26942,23.4365085324283,69.8597290186617,0.4498,403.0,424.0,410.0,3,10.0,404.0,403.0,414.0
2012-1-54,HOH 459,26943,23.9873795079651,69.9281780737789,0.5722,562.0,641.0,603.0,4,36.0,604.0,569.0,638.0
2012-1-56,HOH 392,26944,22.841969572772,70.0275844566458,0.5919,759.0,797.0,780.0,3,16.0,784.0,771.0,790.0
2012-1-62,HOH 359,26945,23.7626401684869,69.8331848951696,2.9254,440.0,520.0,485.0,8,25.0,485.0,472.0,504.0
2012-2-1,HOH 479,26946,24.11409688179,69.8150126744265,3.1619,488.0,605.0,557.0,10,44.0,583.0,517.0,591.0
2012-2-26,Ninnasjuhanajavri,26947,23.9069662111352,69.7500007073433,4.561,477.0,539.0,517.0,15,18.0,523.0,503.0,531.0
2012-2-46,Øvre Sørelvvatnet,26948,23.7989793930013,70.0078950665739,12.02,786.0,861.0,821.0,21,23.0,823.0,797.0,839.0
2014-1-59,HOH 665,26949,22.2536268897015,70.0829737008079,0.3477,1016.0,1159.0,1087.0,3,59.0,1087.0,1051.0,1123.0
2014-2-29,Ternevatnet,26950,22.3846244455091,70.0955146712926,5.8765,919.0,1101.0,1024.0,15,43.0,1018.0,1006.0,1041.0
2015-2-10,Langkeilvatn,26951,22.5434357304205,70.6691243335856,0.6696,1625.0,1668.0,1642.0,5,15.0,1642.0,1633.0,1642.0
2017-1-3,HOH 610,26952,24.1060314069138,70.3890457618922,0.2612,907.0,1084.0,970.0,4,68.0,945.0,935.0,980.0
2017-1-55,HOH 243,26953,24.3265315526051,70.6213799185033,0.3236,1317.0,1333.0,1325.0,2,8.0,1325.0,1321.0,1329.0
2017-2-45,Gukkesluobbal,26954,23.7936949647554,70.261504911485,3.3759,868.0,978.0,948.0,10,31.0,954.0,939.0,971.0
2018-1-36,HOH 165,26955,24.6422406708538,70.9118621558436,3.6133,1566.0,1698.0,1646.0,10,38.0,1655.0,1641.0,1666.0
2018-1-39,HOH 370,26956,24.8166137846124,70.6867921193864,0.9303,1314.0,1370.0,1332.0,4,23.0,1321.0,1317.0,1336.0
2018-1-49,HOH 340,26957,25.1520905833918,70.8033676077796,0.2907,1307.0,1387.0,1347.0,2,40.0,1347.0,1327.0,1367.0
2018-1-72,HOH 128,26958,24.9986035010793,70.863763601206,0.2555,1425.0,1459.0,1442.0,2,17.0,1442.0,1433.0,1451.0
2018-2-22,Lamvatnet,26959,24.4630480056863,70.8112269850937,2.8192,1332.0,1391.0,1358.0,10,19.0,1360.0,1340.0,1372.0
2018-2-37,Jiegnajavrit,26960,25.4323980967284,70.8961530789414,2.2885,811.0,891.0,861.0,7,25.0,858.0,852.0,882.0
2018-3-6,Måkkejavri,26961,25.156884662833,70.7646162076328,5.5364,1410.0,1502.0,1457.0,15,30.0,1454.0,1438.0,1478.0
2020-1-5,HOH 582,26962,25.5486820206307,70.0727353712485,0.7327,740.0,768.0,754.0,2,14.0,754.0,747.0,761.0
2020-1-20,Ucca Lakcajavrit,26963,25.6835814754526,70.3990084503197,0.1836,617.0,646.0,632.0,2,14.0,632.0,624.0,639.0
2020-1-50,Rambijærvi,26964,25.5452929377673,70.355679157264,1.7091,621.0,649.0,634.0,4,10.0,632.0,626.0,640.0
2020-1-70,HOH 316,26965,25.5425243124574,69.8169206292072,0.3533,470.0,486.0,480.0,3,7.0,483.0,476.0,484.0
2020-2-11,Båldnejavri,26966,24.4708844780044,69.8619009144433,0.5695,648.0,667.0,660.0,4,7.0,662.0,657.0,664.0
2020-2-32,Coalbmejavri,26967,24.9896439568171,69.9912293297395,13.1009,444.0,493.0,473.0,28,16.0,480.0,460.0,488.0
2020-2-41,Luomujavrit,26968,25.03884663124,70.6301718304266,3.4117,1328.0,1450.0,1383.0,10,31.0,1375.0,1367.0,1402.0
2020-2-47,Ravdujavri,26969,25.837732475957,70.3365928017808,1.0768,752.0,767.0,759.0,5,5.0,758.0,757.0,762.0
2020-3-1,Læktujavri,26970,24.3420907638894,70.1750157350881,17.0333,557.0,673.0,619.0,31,43.0,618.0,576.0,662.0
