station_id,station_code,station_name,aquamonitor_id,longitude,latitude,grid,cell_id,period,n_oks_mgpm2pyr,n_red_mgpm2pyr,n_tot_mgpm2pyr,s*_mgpm2pyr
259,221-1-2,Langtjern,26070,11.8506102053126,59.8099151426289,blr,59511008,1978-1982,414.23,389.37,803.6,782.41
260,101-2-7,Hokksjøen,26071,11.5599461927895,59.0051247540158,blr,59011015,1978-1982,576.11,502.89,1079.0,1085.72
261,402-2-13,Sætertjern,26072,12.4436697024394,60.0577714148464,blr,60012014,1978-1982,469.13,412.2099999999999,881.3399999999999,910.22
262,419-1-25,Mjøgsjøen,26073,11.8452761296037,60.3320346212822,blr,60011008,1978-1982,312.24,281.38,593.62,616.06
263,425-2-2,Kottern,26074,12.5119937092359,60.5873185563547,blr,60512015,1978-1982,394.63,355.97,750.6,781.49
264,432-1-26,Måsabutjørna,26075,11.1860257957062,61.8205797880501,blr,61511005,1978-1982,150.7,169.86,320.56,343.51
265,436-1-7,HOH 1066,26076,11.1376999886352,62.234991969951,blr,62011009,1978-1982,134.61,152.48000000000002,287.09000000000003,312.4
266,438-1-13,Brennvoltjørna,26077,10.7805674516123,61.9827820828669,blr,61510004,1978-1982,107.04,120.15999999999998,227.2,244.45
267,512-1-26,HOH 1374,26078,9.07780028548882,62.3262043593914,blr,62009005,1978-1982,87.69,107.9,195.59,205.85
268,512-2-7,Kjelsungvatnet,26079,9.14888627582275,62.2354961749407,blr,62009009,1978-1982,112.78,130.9,243.68,251.08
269,513-2-18,Nedre Søvertjørni,26080,7.69928335299551,61.8604451898515,blr,61507007,1978-1982,159.62,200.01999999999998,359.64,387.49
270,513-3-14,Liavatnet,26081,7.7655451025245,61.8635866372538,blr,61507008,1978-1982,105.73,124.05,229.78,230.75
271,514-2-16,Skuggevatnet,26082,7.99466786269791,61.5926484025741,blr,61507016,1978-1982,94.65,109.53999999999999,204.19,201.54
272,538-1-33,Høgkampvatnet,26083,9.81463963221239,61.0664508359851,blr,61009016,1978-1982,261.16,283.88999999999993,545.05,552.99
273,545-1-15,HOH 1398,26085,8.46455743652935,61.1986131057354,blr,61008010,1978-1982,255.15,285.28,540.43,565.45
274,604-1-7,Korstjernet,26086,9.63358292542722,59.5239514820368,blr,59509015,1978-1982,400.18,368.2,768.38,767.66
275,604-3-3,Hengsvatnet,26087,9.44224495408487,59.6539588282726,blr,59509010,1978-1982,373.19,349.1499999999999,722.3399999999999,723.36
276,807-1-71,Surtetjørn,26088,9.1288416008768,59.770518428724,blr,59509005,1978-1982,386.3,392.42,778.72,764.45
277,817-1-10,Vihusvatnet,26089,8.88603046368322,59.0772079330734,blr,59008016,1978-1982,460.49,421.93000000000006,882.4200000000001,865.39
278,829-1-13,Mjåvatn,26090,8.26277838649925,59.3090240755202,blr,59008006,1978-1982,390.52,382.54999999999995,773.0699999999999,762.16
279,830-1-24,Store Kleivtjørn,26091,8.65267708166301,59.0242506981368,blr,59008015,1978-1982,605.93,564.07,1170.0,1149.01
280,833-2-21,Folurdkaldevatn,26092,7.60015796268927,59.3865156771687,blr,59007003,1978-1982,440.67,459.3,899.97,872.68
281,834-1-12,Hemletjørnane,26093,7.54505206692548,59.6096818606859,blr,59507015,1978-1982,403.74,421.01,824.75,799.56
282,834-1-32,HOH 1394,26094,7.96063779573449,59.935892757496,blr,59507004,1978-1982,246.55,254.07999999999998,500.63,493.79
283,928-1-7,Lundevatnet,26095,8.21745394237936,58.4625868542682,blr,58008001,1978-1982,712.35,642.42,1354.77,1299.02
284,928-2-20,Lille Hovvatnet,26096,8.0308573506426,58.6060108619034,blr,58508013,1978-1982,514.93,488.18999999999994,1003.1199999999999,986.6
285,940-2-9,HOH 1227,26098,7.09879520487891,59.1849404427463,blr,59007009,1978-1982,406.51,438.71000000000004,845.22,819.34
286,941-2-23,Reinsgrovtjørnane,26099,7.00031682301533,59.3403365021126,blr,59007005,1978-1982,545.4,590.9800000000001,1136.38,1106.79
287,1003-2-4,Saudlandsvatnet,26100,6.76753672554633,58.2007632668188,blr,58006012,1978-1982,996.01,940.1299999999999,1936.1399999999999,1852.8
288,1004-1-34,Store Einervann/HOH 230,26101,6.57911605673276,58.3104616155769,blr,58006007,1978-1982,697.92,681.57,1379.49,1317.11
289,1014-1-32,Krossvatnet,26102,7.78653556794165,58.2446518570464,blr,58007012,1978-1982,792.48,702.3299999999999,1494.81,1427.14
290,1032-1-19,Svartevatnet,26103,7.08411361913496,58.2764674349431,blr,58007005,1978-1982,789.42,774.9899999999999,1564.4099999999999,1489.23
291,1037-1-1,Lisle Frøysvatnet,26104,7.10648046581649,58.3021621850618,blr,58007005,1978-1982,789.42,774.9899999999999,1564.4099999999999,1489.23
292,1046-1-23,Bergetjørni,26105,6.89943188945471,59.015816600513,blr,59006016,1978-1982,587.05,637.27,1224.32,1194.53
293,1114-1-20,Skjelbreidtjørni,26106,6.18412798004005,58.7231178184775,blr,58506009,1978-1982,813.42,867.0099999999999,1680.4299999999998,1609.41
294,1114-1-34,Lomstjørni,26107,6.08464959422335,58.6739138989476,blr,58506009,1978-1982,813.42,867.0099999999999,1680.4299999999998,1609.41
295,1122-1-9,Kråtjørni,26108,6.11255030558405,58.739981598915,blr,58506009,1978-1982,813.42,867.0099999999999,1680.4299999999998,1609.41
296,1129-1-13,Tvaravatnet,26109,6.31107194250917,59.0394066797937,blr,59006014,1978-1982,570.54,614.71,1185.25,1135.81
297,1201-1-23,Knappatjørna,26110,5.26347180644182,60.3273137580868,blr,60005006,1978-1982,765.12,954.2699999999999,1719.3899999999999,1696.73
298,1201-1-32,Brekkevatnet,26111,5.59149713803448,60.3455193560566,blr,60005007,1978-1982,629.13,776.6,1405.73,1523.26
299,1228-1-16,1230 HOH,26112,7.02112068476448,59.776438075162,blr,59507005,1978-1982,343.36,371.26,714.62,700.81
300,1228-2-4,Øvre Juklevatni,26113,7.01687650859628,60.0617068120966,blr,60007013,1978-1982,338.5,379.27,717.77,723.14
301,1231-1-41,HOH 1092,26114,6.49123157704738,60.2941000219955,blr,60006006,1978-1982,296.29,357.18,653.47,665.36
302,1235-1-6,Rundatjørni,26115,6.30217373522905,60.5710601606449,blr,60506014,1978-1982,407.1,491.90999999999997,899.01,970.19
303,1263-3-10,Husdalsvatnet,26116,5.49462060013147,60.6354839101759,blr,60505010,1978-1982,606.89,783.17,1390.06,1559.33
304,1266-1-25,Stemmevatnet,26117,5.32516116934407,60.8619402162505,blr,60505006,1978-1982,482.59,647.1700000000001,1129.76,1300.98
305,1266-1-43,HOH 816,26118,5.81279002662846,60.9299194899709,blr,60505004,1978-1982,432.69,552.95,985.6400000000001,1018.94
306,1401-1-35,Rundedalsvatnet,26119,5.20185969267551,61.6631403227798,blr,61505009,1978-1982,273.17,391.7300000000001,664.9000000000001,797.12
307,1411-2-17,Holmevatnet,26120,5.39735838813455,60.9713993006862,blr,60505002,1978-1982,446.71,601.6599999999999,1048.37,1200.83
308,1411-2-34,Botnavatnet,26121,5.3950090879743,60.9859585923981,blr,60505002,1978-1982,446.71,601.6599999999999,1048.37,1200.83
309,1416-2-6,Blåfjellvatnet,26122,5.76583266294955,61.0233736015267,blr,61005016,1978-1982,439.3,561.6600000000001,1000.96,1032.04
310,1421-1-34,HOH 1530,26123,7.63962475805021,60.8545058518727,blr,60507007,1978-1982,158.17,189.34,347.51,355.11
311,1426-2-29,Krongeltjørni,26124,7.93039096595436,61.5685762961678,blr,61507016,1978-1982,94.65,109.53999999999999,204.19,201.54
312,1429-3-22,Langesjøen,26125,5.16425265659496,61.2797456596875,blr,61005005,1978-1982,311.26,422.88,734.14,840.35
313,1432-2-20,Steinbotsvatna,26126,6.4055361634645,61.3537411771611,blr,61006006,1978-1982,292.4,388.55000000000007,680.95,767.76
314,1433-1-30,Einevollsvatnet,26127,5.58193865139987,61.4796822459681,blr,61005003,1978-1982,386.5,565.95,952.45,998.27
315,1534-2-5,St. Hestevatn,26128,6.40180160270607,62.5931988727053,blr,62506014,1978-1982,117.45,190.57,308.02,348.75
316,1539-3-3,Ulvådalsvatnet,26129,7.91235309459286,62.2454382425503,blr,62007012,1978-1982,133.61,166.39,300.0,322.02
317,1543-2-8,Røndalskarvatn,26130,8.07920441273034,62.6103683204659,blr,62508013,1978-1982,178.76,236.62,415.38,461.9
318,1566-2-19,HOH 1078,26131,8.99099617385894,62.7476979150966,blr,62508012,1978-1982,162.44,211.07,373.51,403.95
319,1622-2-4,Austvatnet,26133,9.7461930717893,63.4122300021566,blr,63009003,1978-1982,145.73,200.03,345.76,393.93
320,1640-2-18,Skebrosjøane,26134,12.1625927587531,62.4051085053704,blr,62012001,1978-1982,107.44,126.54000000000002,233.98000000000002,266.56
321,1718-1-3,Hyttvatnet,26135,10.5286440918313,63.7478096913667,blr,63510011,1978-1982,145.14,219.69,364.83,436.94
322,1736-3-4,Snaufjellvatnet,26136,13.1541264225788,64.1916940034456,blr,64013009,1978-1982,124.57,192.02000000000004,316.59000000000003,387.01
323,1738-3-9,Midtre Blåfjellvatnet,26137,13.5400182555295,64.1155371435143,blr,64013015,1978-1982,101.57,150.42,251.98999999999998,315.07
324,1751-2-11,Grønlivatnet,26138,11.9992516210882,64.8718890318998,blr,64511008,1978-1982,180.85,299.26,480.11,560.54
325,1851-2-13,Trollvatnet,26139,15.6079862821763,68.3656676792037,blr,68015007,1978-1982,168.91,244.77,413.68,684.81
326,1929-2-13,Daudmannsvatn,26140,17.4059311163758,69.330985843652,blr,69017006,1978-1982,115.67,126.83999999999999,242.51,476.69
327,2011-1-13,HOH 510,26141,23.7033484806321,68.8681467853392,blr,68523007,1978-1982,83.27,77.37999999999998,160.64999999999998,281.08
328,2011-1-29,HOH 407,26142,24.4007270429175,68.8773195314931,blr,68524002,1978-1982,84.91,79.43,164.34,269.96
329,2011-1-60,HOH 414,26143,23.4544004878611,69.0464410149078,blr,69023014,1978-1982,77.31,69.75,147.06,265.49
330,2011-2-34,Guolehisjavri,26144,22.2687443638187,68.9110504394135,blr,68522002,1978-1982,69.1,63.28,132.38,238.15
331,2020-2-30,HOH 515,26145,25.3900841918544,70.1664407669372,blr,70025010,1978-1982,90.88,87.41,178.29,315.18
332,2022-1-42,HOH 292,26146,27.4221436044761,70.7342568717137,blr,70527010,1978-1982,89.45,94.02,183.47,282.35
333,2022-1-45,HOH 561,26147,26.7269225350736,70.1634171642559,blr,70026011,1978-1982,104.25,105.26999999999998,209.51999999999998,334.87
334,2025-1-57,HOH 450,26149,28.7918398886113,70.5425336326835,blr,70528016,1978-1982,86.84,90.01000000000002,176.85000000000002,297.41
335,831-501,Brårvatn,26150,7.7260021266652,59.2928806446639,blr,59007007,1978-1982,593.03,603.8199999999999,1196.85,1162.44
336,1640-603,Tufsingen,26151,11.8759029736546,62.6106651578369,blr,62511016,1978-1982,142.56,170.03000000000003,312.59000000000003,358.05
337,1228-501,Steinavatn,26152,6.57995021546729,59.8545141693148,blr,59506007,1978-1982,442.97,494.65,937.62,928.71
338,1018-4,Kleivsetvannet,26153,7.67717371130857,58.1091918771752,blr,58007015,1978-1982,1148.99,1062.3500000000001,2211.34,2135.1
339,1840-601,Kjemåvatn,26154,15.409438719011,66.7682711445406,blr,66515006,1978-1982,76.75,118.13,194.88,255.88
340,429-601,Holmsjøen,26155,11.6214056818289,61.1490042666345,blr,61011011,1978-1982,274.83,265.93,540.76,570.08
341,1725-3-14,Bjørfarvatnet,26156,10.9848965233555,64.2762379867915,blr,64010008,1978-1982,162.07,245.25,407.32,498.52
342,101-2-2,Steinsvatnet,26157,11.6527237053203,59.1000717120539,blr,59011015,1978-1982,576.11,502.89,1079.0,1085.72
343,101-4-1,Femsjøen,26158,11.4447098899549,59.1271408865578,blr,59011010,1978-1982,376.25,331.14,707.39,714.89
344,105-3-6,Isesjøen,26159,11.238319741201,59.298750602071,blr,59011005,1978-1982,392.05,359.0199999999999,751.0699999999999,763.85
345,105-3-10,Tunevatnet,26160,11.0959134869238,59.3188347236257,blr,59011005,1978-1982,392.05,359.0199999999999,751.0699999999999,763.85
346,118-1-7,Lilledalstjernet,26161,11.6898254359155,59.2442373509217,blr,59011011,1978-1982,567.25,496.44000000000005,1063.69,1073.62
347,118-1-39,Ekertjernet,26162,11.7423256761422,59.3056149241498,blr,59011007,1978-1982,559.49,490.56999999999994,1050.06,1062.9
348,119-1-2,Hølevatnet,26163,11.660398725416,59.6087869636463,blr,59511015,1978-1982,434.53,384.01,818.54,830.9
349,119-2-81,Nordre Torgrimsbutjern,26164,11.7699108696026,59.3513677213814,blr,59011008,1978-1982,506.09,474.83,980.92,949.36
350,119-4-3,Rødenessjøen,26165,11.6509593543392,59.4831677147969,blr,59011003,1978-1982,519.68,454.42999999999995,974.1099999999999,988.01
351,128-1-4,Stomperudtjernet,26166,11.4042880023564,59.3214494951174,blr,59011006,1978-1982,513.6,448.65999999999997,962.26,973.91
352,137-3-1,Sæbyvatnet,26168,10.9735816814163,59.4290625779328,blr,59010004,1978-1982,483.46,445.4700000000001,928.9300000000001,946.31
353,217-3-1,Gjersjøen,26169,10.7768924297407,59.8082603670725,blr,59510008,1978-1982,398.29,371.96,770.25,788.61
354,220-2-9,Bondivatnet,26170,10.4373438837967,59.8173657437307,blr,59510006,1978-1982,513.98,491.02,1005.0,1029.5
355,221-1-6,Lombergtjern,26171,11.6183293305432,59.736942288249,blr,59511011,1978-1982,447.98,396.14,844.12,856.96
356,221-1-9,Lembruvatna,26172,11.8405999711525,59.8418896865841,blr,59511008,1978-1982,414.23,389.37,803.6,782.41
357,221-3-2,Floen,26173,11.5085154611869,59.982400683095,blr,59511003,1978-1982,481.55,427.38000000000005,908.9300000000001,930.83
358,227-2-1,Heia,26174,11.2137418095376,59.9275356606149,blr,59511001,1978-1982,380.43,346.32,726.75,743.93
359,231-2-5,Tretjernet,26175,11.1304789636616,59.9878679880429,blr,59511001,1978-1982,380.43,346.32,726.75,743.93
360,235-1-3,Sesvolltjernet,26176,11.1651748593392,60.2496232718642,blr,60011009,1978-1982,462.39,427.01,889.4,909.55
361,236-1-12,Djuptjern,26177,11.5426121113534,60.0225974160082,blr,60011015,1978-1982,462.15,410.49,872.64,893.65
362,236-2-4,Flasjøen,26178,11.7623160922917,60.0949383699038,blr,60011016,1978-1982,307.73,270.61,578.34,597.08
363,239-1-186,Buråstjern,26179,11.0332926516701,60.4292233581434,blr,60011001,1978-1982,156.23,144.89000000000001,301.12,304.12
364,239-2-3,Bundlitjernet,26180,11.1086438271369,60.429210663977,blr,60011001,1978-1982,156.23,144.89000000000001,301.12,304.12
365,239-2-10,Holtjernet,26181,11.0962627279355,60.4714136011444,blr,60011001,1978-1982,156.23,144.89000000000001,301.12,304.12
366,239-4-3,Hurdalsjøen,26182,11.1607157628663,60.2977432346315,blr,60011005,1978-1982,335.56,310.3500000000001,645.9100000000001,658.35
367,301-1-1,Steinsrudtjern,26183,10.867860779312,59.821658466451,blr,59510008,1978-1982,398.29,371.96,770.25,788.61
368,301-2-1,Rottungen,26184,10.720638314646,60.0487564684818,blr,60010015,1978-1982,481.92,462.31,944.23,969.76
369,301-3-1,Helgeren,26185,10.7092083807613,60.0726206070109,blr,60010015,1978-1982,481.92,462.31,944.23,969.76
370,402-1-28,Eintjern,26186,12.3661033717618,60.072388392562,blr,60012014,1978-1982,469.13,412.2099999999999,881.3399999999999,910.22
371,412-1-20,Kinnlitjernet,26190,10.8114452530412,60.8865964332488,blr,60510004,1978-1982,257.52,262.15,519.67,548.75
372,412-1-22,Ørtjernet,26191,11.1143112143436,61.0129432613716,blr,61011013,1978-1982,256.94,260.44,517.38,545.85
373,412-3-4,Sjusjøen,26192,10.712878634619,61.1427851426355,blr,61010011,1978-1982,368.87,386.77,755.64,790.3
374,412-5-1,Mjøsa,26193,11.2363286191171,60.3976914911794,blr,60011001,1978-1982,156.23,144.89000000000001,301.12,304.12
375,418-1-4,Vesle Otten,26194,11.3660876382452,60.4546185554114,blr,60011002,1978-1982,371.19,330.8999999999999,702.0899999999999,718.56
376,418-1-14,Geittjerna,26195,11.5700270742123,60.4687628945745,blr,60011003,1978-1982,330.98,297.61,628.59,643.7
377,418-2-3,Tennungen,26196,11.436994911941,60.3518696071504,blr,60011006,1978-1982,319.72,287.87,607.59,621.75
378,419-1-23,Svarttjernet,26197,11.7048019268145,60.2964813035627,blr,60011007,1978-1982,328.66,295.6499999999999,624.31,639.16
379,419-2-8,Igletjernet,26198,11.7054859404863,60.2761629591887,blr,60011007,1978-1982,328.66,295.6499999999999,624.31,639.16
380,423-1-21,Langtjernet,26200,12.4121192311791,60.457541417407,blr,60012002,1978-1982,415.53,373.95000000000005,789.48,821.28
381,423-3-14,Rotnesjøen,26201,12.3515582867927,60.4773441559351,blr,60012002,1978-1982,415.53,373.95000000000005,789.48,821.28
382,425-1-15,Kalbråtåsjøen,26202,12.3331502890527,60.5485064656039,blr,60512014,1978-1982,366.07,331.39000000000004,697.46,727.12
383,425-2-10,Steinsjøen,26203,12.2596781464814,60.8218151420737,blr,60512006,1978-1982,278.5,272.21000000000004,550.71,588.76
384,425-2-25,Knapptjernet,26204,12.126482722089,60.5833030729479,blr,60512013,1978-1982,297.53,276.29999999999995,573.8299999999999,601.99
385,426-3-1,Vålmangen,26205,11.7901648089578,60.5877620488379,blr,60511016,1978-1982,394.65,361.41999999999996,756.0699999999999,789.42
386,427-3-12,Svenkebekksjøen,26206,11.970611336838,60.8539249273538,blr,60511008,1978-1982,320.8,306.81,627.61,668.62
387,428-2-15,Mjølsjøen,26207,12.1963569861477,61.5680566498042,blr,61512013,1978-1982,150.77,157.38999999999996,308.15999999999997,333.85
388,430-2-1,Setningsjøen,26209,10.2732487362366,61.7550946398696,blr,61510006,1978-1982,142.1,149.25000000000003,291.35,307.58
389,430-2-16,Gråtjørna,26210,10.5754708685574,61.8558730534007,blr,61510007,1978-1982,138.57,151.75,290.32,306.2
390,432-1-2,Langtjørna,26211,11.2815082459116,61.5383299687103,blr,61511014,1978-1982,166.43,170.54000000000002,336.97,359.62
391,432-1-10,Byringtjørna,26212,11.4439242019017,61.4838217637697,blr,61011002,1978-1982,243.94,247.5,491.44,522.15
392,432-1-18,Stortjørna,26213,11.2552876113564,61.5993398286154,blr,61511014,1978-1982,166.43,170.54000000000002,336.97,359.62
393,432-2-23,Hundtjørna,26214,10.95825656429,61.8239572007955,blr,61510008,1978-1982,161.62,176.5,338.12,359.02
394,432-4-1,Sølensjøen,26215,11.6801909142182,61.8776400443718,blr,61511003,1978-1982,144.61,161.03999999999996,305.65,338.42
395,432-4-2,Storsjøen,26216,11.3642241330709,61.3920901905526,blr,61011002,1978-1982,243.94,247.5,491.44,522.15
396,434-1-11,Abbortjørna,26217,12.1431078252729,62.3059102339019,blr,62012005,1978-1982,116.43,133.41,249.84,283.35
397,434-2-4,Store Sorksjøen,26218,11.9996555189991,61.9733967155068,blr,61511004,1978-1982,199.04,217.50999999999996,416.54999999999995,461.99
398,434-2-21,Skjervagen,26219,12.1928756909154,61.9161081665176,blr,61512001,1978-1982,245.0,268.96000000000004,513.96,571.29
399,434-3-23,Fjellgutusjøen,26220,12.0951205404253,62.0645076934887,blr,62012013,1978-1982,280.67,322.67,603.34,683.74
400,434-5-1,Femunden,26221,11.8675572798316,61.9351939296337,blr,61511004,1978-1982,199.04,217.50999999999996,416.54999999999995,461.99
401,436-1-3,Rabbtjørna,26222,11.2742683230961,62.3477713462696,blr,62011006,1978-1982,131.22,149.09,280.31,318.89
402,437-1-9,Halvorstjørna,26223,10.2083426923733,62.5311067327497,blr,62510013,1978-1982,131.29,151.61999999999998,282.90999999999997,307.54
403,438-2-19,Søre Klettsjøen,26224,10.2307372692658,61.9962024511279,blr,61510001,1978-1982,95.91,99.63,195.54,202.03
404,441-1-12,Storflotjørna,26225,11.033963781169,62.5314732059787,blr,62511013,1978-1982,83.62,98.28,181.9,202.28
405,501-3-9,Mellsjøen,26226,10.7082879772742,61.2018584915858,blr,61010011,1978-1982,368.87,386.77,755.64,790.3
406,511-3-15,Vålåsjøen,26227,9.42395542555897,62.1752634858999,blr,62009010,1978-1982,95.41,109.46000000000001,204.87,214.5
407,512-1-8,Nedre Mølmsvatnet,26228,8.37261172076234,62.2823593112504,blr,62008006,1978-1982,153.16,193.35999999999999,346.52,372.57
408,512-1-14,Lomtjørni,26229,8.69603661733137,62.2750979875152,blr,62008007,1978-1982,89.57,110.43,200.0,209.79
409,512-1-18,HOH 1506,26230,9.09804259669571,62.3531591233519,blr,62009005,1978-1982,87.69,107.9,195.59,205.85
410,512-2-23,Rygghøtjørni,26231,8.56801668006842,62.0417823319516,blr,62008015,1978-1982,73.6,84.10999999999999,157.70999999999998,158.86
411,512-3-12,Langvatnet,26232,9.13772042271445,62.3102787222023,blr,62009005,1978-1982,87.69,107.9,195.59,205.85
412,513-1-7,HOH 1370,26233,7.44771800750226,62.0393019712778,blr,62007014,1978-1982,181.41,230.23999999999998,411.65,461.35
413,513-2-5,Grøntjørni,26234,7.80095012510874,61.7526482306374,blr,61507008,1978-1982,105.73,124.05,229.78,230.75
414,513-2-27,Styggvatnet,26235,7.71685603441794,61.7583230095167,blr,61507007,1978-1982,159.62,200.01999999999998,359.64,387.49
415,514-1-1,Urdadalstjørnin,26236,8.39978129476468,61.5451123185816,blr,61508014,1978-1982,110.71,122.99999999999999,233.70999999999998,228.82
416,514-1-10,Sjugurdtindtjørni,26237,8.57192467454526,61.4848057233091,blr,61008003,1978-1982,99.96,113.34000000000002,213.3,220.58
417,514-1-29,Brangsdalstjørnin,26238,8.09154246156622,61.6257908865495,blr,61508009,1978-1982,91.25,103.68,194.93,188.58
418,514-2-26,Panna,26239,8.29801056455344,61.5483007094524,blr,61508014,1978-1982,110.71,122.99999999999999,233.70999999999998,228.82
419,515-1-23,Skytningen,26240,9.02848375593406,61.8137201573845,blr,61509005,1978-1982,113.67,128.68,242.35000000000002,246.43
420,515-2-1,Tjørnosen,26241,9.00893116549115,61.5938319743772,blr,61509013,1978-1982,98.76,112.61,211.37,209.71
421,515-2-24,Birisjøen,26242,8.96413257138811,61.5709028690243,blr,61508016,1978-1982,117.97,135.03,253.0,253.7
422,516-2-8,Nedre Sikkilsdalsvatnet,26243,9.03165378316274,61.4823856731125,blr,61009001,1978-1982,107.0,121.88999999999999,228.89,227.11
423,517-1-16,HOH 1506,26244,9.69843400853851,61.9073799352,blr,61509003,1978-1982,103.37,110.35,213.72,220.93
424,519-1-6,Sprentjørna,26245,9.55042459384487,61.4477296095033,blr,61009003,1978-1982,105.73,114.3,220.03,225.02
425,519-2-12,Nordre Vulutjørni,26246,10.0170032845207,61.8238191862799,blr,61510005,1978-1982,133.55,138.17000000000002,271.72,285.74
426,519-2-29,Vesle Jetningen,26247,9.81661036744044,61.4758593105391,blr,61009004,1978-1982,171.03,190.18000000000004,361.21000000000004,363.39
427,520-1-11,Urdtjern,26248,10.0931250386587,61.6683264876048,blr,61510009,1978-1982,147.48,155.42,302.9,319.96
428,520-1-31,Steinslatjørnet,26249,10.6039092982198,61.4634370172065,blr,61010003,1978-1982,244.88,258.19,503.07,526.76
429,521-2-14,Tromstjørn,26250,10.5065883391567,61.4067678151119,blr,61010003,1978-1982,244.88,258.19,503.07,526.76
430,521-3-5,Lyngen,26251,10.7657127892707,61.3733966061416,blr,61010008,1978-1982,176.7,188.95,365.65,386.47
431,522-1-13,Skruvdalstjernet,26252,9.54112079660592,61.2122201715875,blr,61009011,1978-1982,211.0,225.05,436.05,447.76
432,522-3-4,Øvre Reinsjøen,26253,9.57938981816738,61.2016042996613,blr,61009011,1978-1982,211.0,225.05,436.05,447.76
433,522-3-16,Espedalsvatnet,26254,9.49404245031086,61.4386319421973,blr,61009002,1978-1982,88.49,94.43000000000002,182.92000000000002,180.95
434,528-2-6,Mørksjøen,26255,11.02477885679,60.5203900479097,blr,60511013,1978-1982,268.73,245.66999999999996,514.4,520.87
435,532-1-3,Fagervatnet,26257,10.4963179094583,60.1978927758715,blr,60010010,1978-1982,272.9,254.05000000000007,526.95,539.73
436,533-3-17,Mylla,26258,10.6013076726184,60.2424687744357,blr,60010011,1978-1982,526.77,501.6700000000001,1028.44,1058.66
437,534-5-1,Randsfjorden,26259,10.3719353898174,60.2336541514382,blr,60010010,1978-1982,272.9,254.05000000000007,526.95,539.73
438,536-1-12,Brokslitjernet,26260,10.298834696484,60.8026455464363,blr,60510006,1978-1982,295.85,294.11,589.96,605.62
439,538-1-20,Kolsrudvatnet,26262,10.2164595962312,60.8925939627145,blr,60510001,1978-1982,322.33,332.32,654.65,678.81
440,538-2-2,Vangsjøen,26263,9.99057711161386,60.8772563624025,blr,60509004,1978-1982,303.77,316.96000000000004,620.73,642.43
441,540-2-21,Holmevatnet,26264,9.91175204620117,60.7364758642945,blr,60509012,1978-1982,277.53,270.88,548.41,562.95
442,540-2-22,Øyvatnet,26265,9.80125745748835,60.7780583785339,blr,60509008,1978-1982,285.52,290.4100000000001,575.9300000000001,595.14
443,541-2-3,Grannstøltjernet,26267,9.69370777932616,61.0473093550533,blr,61009015,1978-1982,205.86,216.62,422.48,433.97
444,542-1-19,Nisetjernet,26268,9.43985539936335,61.1213710879886,blr,61009014,1978-1982,212.94,228.66000000000003,441.6,454.03
445,542-1-25,Nordre Valegrovtjernet,26269,9.41477739258584,61.0826999176353,blr,61009014,1978-1982,212.94,228.66000000000003,441.6,454.03
446,542-3-6,Hærevatn,26270,9.2423880464575,60.8180097346457,blr,60509005,1978-1982,197.61,210.2,407.81,415.41
447,542-3-8,Stogofjorden,26271,9.20588350507887,60.8114833736562,blr,60509005,1978-1982,197.61,210.2,407.81,415.41
448,543-3-2,Vasetvatnet,26272,8.98509337934663,60.9960187512512,blr,60508004,1978-1982,204.88,225.73000000000002,430.61,444.62
449,543-4-4,Storfjorden,26273,8.87088530080531,60.9099648767178,blr,60508004,1978-1982,204.88,225.73000000000002,430.61,444.62
450,544-1-2,HOH 955,26274,9.1796733512897,61.1444209124803,blr,61009009,1978-1982,169.53,182.84,352.37,358.79
451,544-1-27,HOH 1198,26275,8.84652108022787,61.2947470082311,blr,61008008,1978-1982,106.75,122.13,228.88,229.09
452,544-2-10,Fisketjerni,26276,8.79127708628202,61.3963613867133,blr,61008004,1978-1982,112.13,128.31,240.44,240.93
453,544-2-11,Nordre Vindin,26277,9.02611009614722,61.1953439097519,blr,61009009,1978-1982,169.53,182.84,352.37,358.79
454,545-1-24,Myrjetjernet,26278,8.28789252557704,61.3446068989927,blr,61008006,1978-1982,201.9,227.20000000000002,429.1,448.75
455,545-1-32,Tvindehaugtjernet,26279,8.31391011589577,61.32355597876,blr,61008006,1978-1982,201.9,227.20000000000002,429.1,448.75
456,545-2-4,HOH 1337,26280,8.15626080124758,61.2273188776906,blr,61008009,1978-1982,164.69,191.79000000000002,356.48,367.71
457,545-2-13,Fussegrovtjørni,26281,8.28432132568782,61.0883385290868,blr,61008014,1978-1982,127.73,140.91999999999996,268.65,276.73
458,545-2-17,Langetjernet,26282,8.5948097800687,61.2318793093563,blr,61008011,1978-1982,273.21,306.00000000000006,579.21,607.4
459,545-2-25,Seksin,26283,8.7380981444773,61.3164864210084,blr,61008007,1978-1982,214.82,242.42000000000002,457.24,479.9
460,545-3-7,Helin,26284,8.73814330166968,61.0058504372998,blr,61008015,1978-1982,229.05,256.07,485.12,507.67
461,545-3-19,Nedre Årdalsvatnet,26285,8.1757970572227,61.235842504203,blr,61008009,1978-1982,164.69,191.79000000000002,356.48,367.71
462,545-4-1,Bygdin,26286,8.79714698082338,61.3281909507296,blr,61008008,1978-1982,106.75,122.13,228.88,229.09
463,545-4-3,Vangsmjøsi,26287,8.7014478805535,61.1486002136468,blr,61008011,1978-1982,273.21,306.00000000000006,579.21,607.4
464,545-4-5,Tyin,26288,8.14105557169029,61.2746326478613,blr,61008005,1978-1982,86.07,100.13999999999999,186.20999999999998,185.69
465,604-1-17,Trytetjerna,26289,9.58876341613778,59.5860113161724,blr,59509015,1978-1982,400.18,368.2,768.38,767.66
466,604-2-18,Tverrvatnet,26290,9.6349498353585,59.4798639538655,blr,59009003,1978-1982,418.93,390.19,809.12,812.28
467,605-1-5,Gravvatnet,26291,9.83046024386151,60.4564651350761,blr,60009004,1978-1982,298.02,286.55999999999995,584.5799999999999,602.04
468,612-5-1,Tyrifjorden,26293,9.9671022362075,59.9301104634046,blr,59509004,1978-1982,325.83,293.39000000000004,619.22,626.61
469,615-2-17,Eitrytetjern,26294,9.43497255636751,60.3581755448784,blr,60009006,1978-1982,294.34,294.32,588.66,603.59
470,616-1-10,Kytetjernet,26295,8.92626405644343,60.578923857798,blr,60508016,1978-1982,240.3,238.32,478.62,483.91
471,616-1-13,Langevatnet,26296,8.74121424062652,60.5096290205186,blr,60508015,1978-1982,288.35,299.38,587.73,602.99
472,616-1-26,Hammartjørnet,26297,8.805569535336,60.5859789033799,blr,60508016,1978-1982,240.3,238.32,478.62,483.91
473,616-1-31,Vardetjernan,26298,8.88717855130205,60.5982794024757,blr,60508016,1978-1982,240.3,238.32,478.62,483.91
474,616-2-6,Ausa,26299,8.77365699519881,60.5618984938784,blr,60508016,1978-1982,240.3,238.32,478.62,483.91
475,616-2-20,Belgevatnet,26300,8.77925721366826,60.579867412649,blr,60508016,1978-1982,240.3,238.32,478.62,483.91
476,617-1-19,Nystøltjørni,26301,8.7942021897394,60.7186515232512,blr,60508012,1978-1982,219.54,224.86999999999998,444.40999999999997,451.7
477,617-1-23,Metubba,26302,9.08831174795543,60.7872954480304,blr,60509005,1978-1982,197.61,210.2,407.81,415.41
478,617-1-28,Ørkvatnet,26303,8.97999439475107,60.7641395199951,blr,60508008,1978-1982,218.77,227.02,445.79,452.01
479,618-1-3,HOH 1456,26304,8.14809552658439,60.9001224445984,blr,60508001,1978-1982,181.39,205.46000000000004,386.85,397.4
480,618-3-1,Vannen,26305,8.73263218008228,60.8417287293492,blr,60508007,1978-1982,203.99,225.89999999999998,429.89,443.92
481,619-1-1,Butjørni,26306,8.67523130469535,60.5686375870467,blr,60508015,1978-1982,288.35,299.38,587.73,602.99
482,619-2-19,Mefaringen,26307,8.53063849216731,60.5674511750826,blr,60508015,1978-1982,288.35,299.38,587.73,602.99
483,619-2-33,Austre Flågrunnsvatnet,26308,7.80966857748113,60.8625302035427,blr,60507008,1978-1982,182.68,212.55,395.23,407.95
484,619-3-2,Vassfjorden,26309,8.4216888638847,60.6907451267063,blr,60508010,1978-1982,205.89,214.35000000000002,420.24,432.08
485,619-3-10,Halldalsvatnet,26310,8.47896569154845,60.4934995395858,blr,60008002,1978-1982,190.03,193.02,383.05,392.53
486,620-1-6,HOH 1760,26311,7.70310023452338,60.6008237901673,blr,60507015,1978-1982,246.95,279.84999999999997,526.8,555.1
487,620-1-14,HOH 1340,26312,7.73520245035795,60.6416476207843,blr,60507011,1978-1982,199.53,231.66,431.19,453.94
488,620-1-15,Skarvåtjørnane,26313,7.74542672688829,60.7041149791133,blr,60507011,1978-1982,199.53,231.66,431.19,453.94
489,620-1-21,HOH 1540,26314,7.69624573176361,60.6287567457133,blr,60507011,1978-1982,199.53,231.66,431.19,453.94
490,620-3-7,Skurdalsfjorden,26315,8.31551250565167,60.4614328434061,blr,60008002,1978-1982,190.03,193.02,383.05,392.53
491,620-4-6,Ørteren,26316,7.82916704789515,60.4803517027346,blr,60007004,1978-1982,205.01,229.13,434.14,441.82
492,621-1-27,Flåvatna,26317,9.18767726373529,60.2009433159877,blr,60009009,1978-1982,320.11,337.06000000000006,657.1700000000001,630.45
493,621-3-5,Soneren,26318,9.5897960140874,60.0414802198254,blr,60009015,1978-1982,488.57,460.61000000000007,949.1800000000001,968.41
494,622-2-43,Trytetjern,26319,9.76778824876085,60.2127199923649,blr,60009012,1978-1982,329.65,311.12,640.77,657.13
495,622-4-4,Krøderen,26320,9.78343742387965,60.1230832650787,blr,60009016,1978-1982,370.04,335.64000000000004,705.6800000000001,715.64
496,624-1-8,Grøntjern,26322,9.71237783054907,59.7121154645318,blr,59509011,1978-1982,360.27,329.48,689.75,691.38
497,624-1-55,Brånavatnet,26323,9.85589884253812,59.6385278245579,blr,59509012,1978-1982,376.91,351.99000000000007,728.9000000000001,729.04
498,624-2-23,Skogsvatnet,26324,9.93771939479109,59.822871074637,blr,59509008,1978-1982,400.33,366.7699999999999,767.0999999999999,769.95
499,624-4-5,Eikeren,26325,9.84460126473128,59.6998679377528,blr,59509012,1978-1982,376.91,351.99000000000007,728.9000000000001,729.04
500,631-1-4,Nydammen,26326,9.46719485961799,59.7452383727694,blr,59509010,1978-1982,373.19,349.1499999999999,722.3399999999999,723.36
501,631-2-29,Tryttjern,26327,9.65994479504712,59.8818118692908,blr,59509003,1978-1982,345.93,324.09,670.02,681.93
502,632-1-20,Trytetjørn,26328,9.37586241288361,59.9836778187127,blr,59509002,1978-1982,364.42,350.59,715.01,728.29
503,633-1-11,Øvre Halstjørnane,26329,8.18061712086042,60.2570189016832,blr,60008005,1978-1982,225.53,250.85999999999999,476.39,483.1
504,633-1-16,HOH 1217,26330,7.73333504075183,60.2236101889094,blr,60007011,1978-1982,252.91,273.9,526.81,539.66
505,633-1-18,HOH 1250,26331,8.61882773609941,60.3080709772889,blr,60008007,1978-1982,238.4,238.27,476.67,482.79
506,633-1-29,Tjørngrøtjørnane,26332,8.34787962858316,60.3611889358778,blr,60008006,1978-1982,301.91,300.36999999999995,602.28,612.05
507,633-1-30,Såtenattjørnan,26333,9.13502219078797,60.3598072684077,blr,60009005,1978-1982,207.62,210.14999999999998,417.77,411.59
508,633-2-2,Frygnevatnet,26334,8.637139720101,60.3934013874932,blr,60008003,1978-1982,196.93,199.26,396.19,405.09
509,633-2-4,Grånsettjørni,26335,9.08333136242115,60.3672071227073,blr,60009005,1978-1982,207.62,210.14999999999998,417.77,411.59
510,633-2-8,Vestre Søltjørni,26336,8.24305711713547,60.1842505228451,blr,60008009,1978-1982,224.0,242.26,466.26,470.28
511,633-2-11,Øvre Nutetjørnane,26337,8.36685039091497,60.1927766807078,blr,60008010,1978-1982,223.52,227.16,450.68,452.73
512,633-2-13,Holmevatni,26338,8.9416183922366,60.4253733896881,blr,60008004,1978-1982,214.43,212.25,426.68,431.27
513,633-2-21,Flåtåtjørni,26339,8.51912925631786,60.2412209162478,blr,60008011,1978-1982,195.97,199.96,395.93,397.69
514,633-2-24,Vegardhovdtjørnan,26340,7.82267048007275,60.1436340623229,blr,60007012,1978-1982,242.54,270.72,513.26,521.95
515,633-2-25,HOH 1065,26341,9.11107483042371,60.3146283698874,blr,60009005,1978-1982,207.62,210.14999999999998,417.77,411.59
516,633-3-14,Krossvatnet,26342,8.00625058661523,60.2569185832041,blr,60008005,1978-1982,225.53,250.85999999999999,476.39,483.1
517,633-4-8,Langesjøen,26343,7.87360752911394,60.2598371171765,blr,60007008,1978-1982,224.28,250.49999999999997,474.78,483.0
518,714-3-5,Bergsvatnet,26344,10.0462323044113,59.5957511536897,blr,59510013,1978-1982,375.93,353.12999999999994,729.06,735.39
519,720-2-1,Gjennestadvatnet,26345,10.2515959468191,59.2329869032185,blr,59010010,1978-1982,517.81,464.9200000000001,982.73,982.43
520,728-1-3,Solbergvatnet,26346,9.98920354079026,59.3323836930036,blr,59009008,1978-1982,495.49,461.38,956.87,959.01
521,728-1-6,Rosovatnet,26347,10.0119855722768,59.4016034918378,blr,59010001,1978-1982,479.02,441.78,920.8,921.1
522,806-2-23,Holmevatn,26348,9.59064883070608,59.4500343521137,blr,59009003,1978-1982,418.93,390.19,809.12,812.28
523,807-1-36,Vassenden,26349,9.34905296345812,59.599746447811,blr,59509014,1978-1982,475.25,439.88,915.13,913.53
524,807-3-1,Sønstevatn,26351,9.15019295701711,59.7069827709718,blr,59509009,1978-1982,390.06,371.87000000000006,761.9300000000001,763.48
525,807-4-1,Heddalsvatnet,26352,9.30769712506706,59.4358350684154,blr,59009002,1978-1982,289.49,271.3299999999999,560.8199999999999,558.21
526,815-1-29,HOH 50,26353,9.28087234332899,58.8919749975403,blr,58509002,1978-1982,469.65,413.83000000000004,883.48,865.92
527,815-2-27,Lønstravatnet,26354,9.25275103887932,58.8742828624006,blr,58509006,1978-1982,609.65,528.35,1138.0,1107.39
528,815-3-8,Leivatnet,26355,9.32701887628891,58.7625439164453,blr,58509006,1978-1982,609.65,528.35,1138.0,1107.39
529,817-1-14,Teksle,26356,9.15087583930692,59.0228335295387,blr,59009013,1978-1982,548.81,500.0999999999999,1048.9099999999999,1029.69
530,817-1-33,Store Kyrsvatnet,26357,9.11942956289768,59.1002677919367,blr,59009013,1978-1982,548.81,500.0999999999999,1048.9099999999999,1029.69
531,817-1-34,Eldhustjenna,26358,9.20734476489318,59.0029804843561,blr,59009013,1978-1982,548.81,500.0999999999999,1048.9099999999999,1029.69
532,817-1-38,Signevatnet,26359,9.12181365733133,59.1501865515368,blr,59009009,1978-1982,491.83,449.79,941.62,926.03
533,817-1-43,Skultrevatnet,26360,9.26881080348331,59.0715676156208,blr,59009014,1978-1982,353.91,310.18,664.09,649.75
534,817-1-72,Dei store tjørnane,26361,8.68507095273673,59.0719043083137,blr,59008015,1978-1982,605.93,564.07,1170.0,1149.01
535,817-2-61,Sandvatnet,26362,8.74728202926382,59.0873248559345,blr,59008015,1978-1982,605.93,564.07,1170.0,1149.01
536,819-2-13,Prestevatnet,26364,9.20636218020862,59.1660727704839,blr,59009009,1978-1982,491.83,449.79,941.62,926.03
537,819-2-14,Bøvatnet,26365,9.23031535570494,59.1421884709539,blr,59009009,1978-1982,491.83,449.79,941.62,926.03
538,819-3-17,Store Børten,26366,9.23121732133867,59.1718150102677,blr,59009009,1978-1982,491.83,449.79,941.62,926.03
539,822-2-11,Børtevatn,26367,9.35615773548256,59.4087221002901,blr,59009002,1978-1982,289.49,271.3299999999999,560.8199999999999,558.21
540,826-1-7,Vesle Flottetjørn,26368,8.52126709461534,59.9797575885148,blr,59508003,1978-1982,248.04,254.9,502.94,504.16
541,826-1-16,Svarttjørn,26369,8.85866374193609,59.892298225079,blr,59508004,1978-1982,339.4,353.7099999999999,693.1099999999999,672.22
542,826-1-17,HOH 1162,26370,8.49316202779955,59.9630635265355,blr,59508002,1978-1982,212.56,217.37,429.93,425.21
543,826-1-18,Fikstjørn,26371,8.61817632850538,59.8510525668582,blr,59508007,1978-1982,286.74,287.88,574.62,571.98
544,826-1-20,Grysletjørn,26372,8.59298025385172,59.9736027788395,blr,59508003,1978-1982,248.04,254.9,502.94,504.16
545,826-1-25,HOH 1335,26373,8.03688899232859,60.1575656258763,blr,60008009,1978-1982,224.0,242.26,466.26,470.28
546,826-1-28,Storsteinvatnet,26374,8.35010048933648,59.79360226822,blr,59508006,1978-1982,262.21,261.57,523.78,514.87
547,826-1-30,Ormetjørn,26375,8.50854422134318,59.9029452843337,blr,59508003,1978-1982,248.04,254.9,502.94,504.16
548,826-1-35,Langtjørn,26376,8.40707437672207,60.0246091422781,blr,60008014,1978-1982,228.64,234.55,463.19,460.67
549,826-1-39,Torjustjørn,26377,8.48216071749788,59.9433683975556,blr,59508002,1978-1982,212.56,217.37,429.93,425.21
550,826-2-6,Viktjørn,26378,8.14062934155876,60.1135113652038,blr,60008013,1978-1982,201.81,206.64,408.45,404.39
551,826-2-24,Longetjørn,26379,8.76934361194927,59.8919167407876,blr,59508004,1978-1982,339.4,353.7099999999999,693.1099999999999,672.22
552,827-1-23,Lysetjørn,26381,8.45620733670247,59.7925211450105,blr,59508006,1978-1982,262.21,261.57,523.78,514.87
553,827-1-41,HOH 1102,26382,8.4581990447791,59.8168138885844,blr,59508006,1978-1982,262.21,261.57,523.78,514.87
554,827-2-32,Sjausetvatnet,26383,8.80463238772471,59.6805208461539,blr,59508012,1978-1982,463.38,443.72,907.1,910.2
555,827-3-26,Sjåvatnet,26384,8.85808158977637,59.8313837590191,blr,59508008,1978-1982,367.88,364.88,732.76,739.67
556,828-1-22,Sandtjørni,26385,8.38604922389603,59.7754737611115,blr,59508006,1978-1982,262.21,261.57,523.78,514.87
557,828-2-25,Grotvatni,26387,8.36043066655417,59.7374977780627,blr,59508010,1978-1982,354.93,354.11999999999995,709.05,702.5
558,829-1-46,Stestøyltjørni,26388,8.30147324458705,59.3820255605659,blr,59008002,1978-1982,344.41,338.3,682.71,675.39
559,829-2-59,Bjørntjørn,26389,8.25352578246201,59.3027199151866,blr,59008006,1978-1982,390.52,382.54999999999995,773.0699999999999,762.16
560,829-4-6,Kviteseidvatnet,26390,8.6623012953383,59.3205132682845,blr,59008007,1978-1982,457.03,437.68000000000006,894.71,886.43
561,831-1-26,Snotjørnane,26392,7.76631612455712,59.1382876277312,blr,59007012,1978-1982,393.33,381.48999999999995,774.8199999999999,744.46
562,831-2-3,Øvre Selbuvatn,26393,7.97589424913398,58.9723127581164,blr,58507004,1978-1982,439.03,427.97,867.0,835.66
563,831-2-29,Tussetjørn,26394,7.86506148158355,59.1642637970263,blr,59007012,1978-1982,393.33,381.48999999999995,774.8199999999999,744.46
564,831-2-60,Kråkestøltjørn,26395,7.99145198430155,59.0089349708419,blr,59007016,1978-1982,410.16,397.91,808.07,776.49
565,831-3-32,Sandvatnet,26397,8.23707692432477,59.2151328894128,blr,59008009,1978-1982,317.54,308.89000000000004,626.4300000000001,604.96
566,831-4-8,Fyresvatn,26398,8.26809672146565,59.0094203991953,blr,59008014,1978-1982,571.39,531.12,1102.51,1070.83
567,833-1-21,Grunntjørn,26399,8.26741628787033,59.5576763410611,blr,59508014,1978-1982,346.86,339.56000000000006,686.4200000000001,678.21
568,833-2-16,Kambetjørn,26400,7.76540563495976,59.3731272393947,blr,59007008,1978-1982,334.66,337.16,671.82,660.55
569,833-2-30,Kjønnesviksvatnet,26401,7.71607297339823,59.3444833883888,blr,59007007,1978-1982,593.03,603.8199999999999,1196.85,1162.44
570,833-3-3,Åmlivatn,26402,8.04118679113999,59.3838638046184,blr,59008001,1978-1982,367.67,390.79,758.46,721.76
571,834-1-6,HOH 1387,26403,7.38666879924104,59.9840229063178,blr,59507002,1978-1982,261.8,283.79,545.59,556.6
572,834-2-2,Midtre Supsavatn,26404,7.69423456819703,59.622110944244,blr,59507015,1978-1982,403.74,421.01,824.75,799.56
573,834-2-5,Vonevatn,26405,7.69418256537088,59.8392835737537,blr,59507007,1978-1982,277.09,293.54,570.63,561.32
574,834-2-8,Fetveittjørn,26406,7.87769636885259,59.6256587644421,blr,59507012,1978-1982,315.13,338.83000000000004,653.96,630.53
575,834-2-10,Straumstøltjørn,26407,7.69325611942932,59.7324074643928,blr,59507011,1978-1982,388.69,412.75000000000006,801.44,785.88
576,834-2-12,Torstjørni,26408,7.99296189893916,60.0362827942147,blr,60007016,1978-1982,245.14,258.96,504.09999999999997,504.02
577,834-2-18,Såtetjørn,26409,8.11399437955764,59.928402526401,blr,59508001,1978-1982,308.88,314.52,623.4,614.74
578,834-2-26,Vikvatnet,26410,8.20359610621167,59.6084272919357,blr,59508013,1978-1982,299.64,324.0,623.64,595.48
579,834-2-28,HOH 1367,26411,7.78953974394841,59.9685467103944,blr,59507004,1978-1982,246.55,254.07999999999998,500.63,493.79
580,834-3-14,Lognvikvatn,26413,8.09894157172958,59.683745912302,blr,59508009,1978-1982,332.17,357.87999999999994,690.05,663.01
581,834-4-5,Totak,26414,8.01580937230118,59.6458374224937,blr,59508009,1978-1982,332.17,357.87999999999994,690.05,663.01
582,834-4-7,Holmavatnet,26415,7.14303541553169,59.6795468943518,blr,59507009,1978-1982,491.9,532.1900000000002,1024.0900000000001,999.75
583,901-1-55,Stavvatn,26416,8.97324102300663,58.7160856231042,blr,58508012,1978-1982,684.65,614.17,1298.82,1242.99
584,901-2-49,Mjåvatnet,26417,9.03544907858958,58.7563274412101,blr,58509005,1978-1982,562.79,504.6100000000001,1067.4,1041.56
585,901-3-8,Dalsvatnet,26418,9.11299255612079,58.7535705606095,blr,58509005,1978-1982,562.79,504.6100000000001,1067.4,1041.56
586,912-2-4,Simonstadvatnet,26420,8.97993921423657,58.7762865290739,blr,58508008,1978-1982,580.91,527.9900000000001,1108.9,1061.69
587,912-2-14,Midtvatnet,26421,8.74393565349053,58.6840768542377,blr,58508011,1978-1982,599.17,566.4,1165.57,1149.7
588,912-2-18,Ljøstadvann,26422,8.89010129373696,58.7535283804278,blr,58508008,1978-1982,580.91,527.9900000000001,1108.9,1061.69
589,912-2-27,Ljøsvannet,26423,10.8671993022734,61.1298591803362,blr,61010012,1978-1982,196.48,203.12000000000003,399.6,423.3
590,912-2-30,HOH 170,26424,8.94505085341008,58.7350306608012,blr,58508012,1978-1982,684.65,614.17,1298.82,1242.99
591,914-1-14,Vålandstjern,26425,8.7524453487019,58.6101424190396,blr,58508016,1978-1982,606.49,540.4300000000001,1146.92,1092.69
592,914-1-31,HOH 146,26426,8.77879094205777,58.643717272378,blr,58508012,1978-1982,684.65,614.17,1298.82,1242.99
593,919-2-19,Ålevatnet,26428,8.37261909768992,58.6708548116896,blr,58508010,1978-1982,537.58,501.83000000000004,1039.41,1020.42
594,928-1-17,Krokevatn,26429,8.2347060694991,58.4290270633947,blr,58008001,1978-1982,712.35,642.42,1354.77,1299.02
595,929-1-1,Eiklitjørn,26431,8.41480516042958,58.7910371526539,blr,58508006,1978-1982,524.17,486.24,1010.41,980.97
596,929-1-5,Berlitjørnane,26432,8.617117815806,58.8578241813021,blr,58508007,1978-1982,545.37,508.4599999999999,1053.83,1026.62
597,929-1-20,Imetjern,26433,8.4961996399369,58.7474358040658,blr,58508010,1978-1982,537.58,501.83000000000004,1039.41,1020.42
598,929-1-22,Øytjørn,26434,8.12513224088403,58.8862084428947,blr,58508001,1978-1982,398.54,378.45,776.99,754.82
599,929-2-8,Øvre Skålvatn,26435,8.66390386302691,58.7912058592596,blr,58508007,1978-1982,545.37,508.4599999999999,1053.83,1026.62
600,929-2-25,Stemmevatn,26436,8.5747276144212,58.9262518941783,blr,58508003,1978-1982,522.93,486.66999999999996,1009.5999999999999,989.73
601,929-2-26,Lauvlivatn,26437,8.29861192980271,58.7985680121967,blr,58508006,1978-1982,524.17,486.24,1010.41,980.97
602,937-2-1,Midtvatnet,26439,7.65238834548641,58.4731983953699,blr,58007003,1978-1982,638.23,588.8299999999999,1227.06,1173.65
603,938-1-9,Longeraktjørn,26441,7.94479409055733,58.7649936255906,blr,58507008,1978-1982,543.11,517.7199999999999,1060.83,1036.42
604,938-1-23,Kvivotni,26442,7.17504193098538,58.9291757834846,blr,58507001,1978-1982,374.0,387.39,761.39,730.04
605,938-1-27,Fånetjørn,26443,7.86098750402924,58.7767474984173,blr,58507008,1978-1982,543.11,517.7199999999999,1060.83,1036.42
606,938-1-28,Hovotni,26444,7.71968393695845,59.0385537055681,blr,59007015,1978-1982,354.25,348.74,702.99,681.62
607,938-1-29,Beritstjørni,26445,7.91900463750103,58.7408438312187,blr,58507012,1978-1982,706.08,650.12,1356.2,1313.66
608,938-2-10,Skjevlevatni,26446,7.99651422601173,58.8827951242162,blr,58507004,1978-1982,439.03,427.97,867.0,835.66
609,938-2-15,Flåvatnet,26447,7.29409201687962,58.9463498250571,blr,58507002,1978-1982,385.65,378.13,763.78,737.73
610,938-3-24,Sandsvatnet,26448,7.9665084557001,58.7970543054891,blr,58507008,1978-1982,543.11,517.7199999999999,1060.83,1036.42
611,940-1-4,Urdevotni,26449,7.33036649624093,59.04997417708,blr,59007014,1978-1982,501.36,492.2099999999999,993.5699999999999,960.45
612,940-1-6,HOH 1220,26450,7.203418012512,59.217161049987,blr,59007009,1978-1982,406.51,438.71000000000004,845.22,819.34
613,940-1-10,HOH 1114,26451,7.37218146300172,59.1219896753308,blr,59007014,1978-1982,501.36,492.2099999999999,993.5699999999999,960.45
614,940-1-11,HOH 1285,26452,7.17754019934984,59.2351662199082,blr,59007009,1978-1982,406.51,438.71000000000004,845.22,819.34
615,940-1-13,HOH 1238,26453,7.110904230322,59.2007361587119,blr,59007009,1978-1982,406.51,438.71000000000004,845.22,819.34
616,940-1-24,HOH 1050,26454,7.64611752820185,59.3320411306314,blr,59007007,1978-1982,593.03,603.8199999999999,1196.85,1162.44
617,940-2-33,Hovdevatnet,26455,7.43202592517295,59.1109559367797,blr,59007014,1978-1982,501.36,492.2099999999999,993.5699999999999,960.45
618,940-2-51,Langevatn,26456,7.72293817323831,59.0616956585811,blr,59007015,1978-1982,354.25,348.74,702.99,681.62
619,940-2-52,Øvre Krokvatnet,26457,7.37362634831307,59.1954188451548,blr,59007010,1978-1982,390.14,388.81000000000006,778.95,753.22
620,941-1-3,HOH 1110,26458,7.14266494309943,59.6234229665932,blr,59507013,1978-1982,457.29,494.2799999999999,951.5699999999999,928.39
621,941-1-8,HOH 1168,26459,6.98703256882244,59.5120062286031,blr,59506016,1978-1982,612.32,671.2100000000002,1283.5300000000002,1261.45
622,941-1-15,HOH 1040,26460,6.99201032174007,59.2960938671524,blr,59006008,1978-1982,515.73,565.51,1081.24,1062.98
623,941-1-18,HOH 1260,26461,6.90560984539243,59.2140881122645,blr,59006012,1978-1982,560.76,610.1099999999999,1170.87,1145.05
624,941-1-30,HOH 1221,26462,6.87617856822777,59.2126609607291,blr,59006012,1978-1982,560.76,610.1099999999999,1170.87,1145.05
625,941-2-2,HOH 1238,26463,7.59604952701393,59.4569832213852,blr,59007003,1978-1982,440.67,459.3,899.97,872.68
626,941-2-17,Reinevasstjørni,26464,7.20882120428649,59.4063679173945,blr,59007001,1978-1982,470.3,508.66,978.96,955.52
627,941-2-32,HOH 1080,26465,6.85489094575587,59.3370633608145,blr,59006008,1978-1982,515.73,565.51,1081.24,1062.98
628,941-2-34,Den lange tjørni,26466,7.23531914026467,59.6538977953699,blr,59507009,1978-1982,491.9,532.1900000000002,1024.0900000000001,999.75
629,941-3-5,Reinevatn,26467,7.21886263726507,59.4005298867255,blr,59007001,1978-1982,470.3,508.66,978.96,955.52
630,941-3-12,Breivevatnet,26468,7.29868318804918,59.5672901816401,blr,59507014,1978-1982,372.65,398.26,770.91,744.85
631,941-3-13,Ormsavatnet,26469,7.16646337980996,59.5062474279074,blr,59507013,1978-1982,457.29,494.2799999999999,951.5699999999999,928.39
632,941-3-18,Urdevatnet,26470,7.01836556768949,59.5755033003129,blr,59507013,1978-1982,457.29,494.2799999999999,951.5699999999999,928.39
633,941-4-2,Store Urevatn,26471,7.18724204594425,59.4584673520025,blr,59007001,1978-1982,470.3,508.66,978.96,955.52
634,1001-1-55,Skeivatnet,26472,7.86252763060646,58.2212059287289,blr,58007012,1978-1982,792.48,702.3299999999999,1494.81,1427.14
635,1002-1-62,Vråvatn,26474,7.40235991951083,58.0872681166407,blr,58007014,1978-1982,973.38,931.2500000000001,1904.63,1755.86
636,1003-1-16,HOH 130,26475,6.75922674402309,58.2138073496554,blr,58006012,1978-1982,996.01,940.1299999999999,1936.1399999999999,1852.8
637,1003-1-18,HOH 14,26476,6.87405746828205,58.0967345492379,blr,58006016,1978-1982,857.68,802.92,1660.6,1590.37
638,1003-2-2,Brastadvatnet,26477,6.68607098525707,58.0983377826324,blr,58006015,1978-1982,750.43,711.35,1461.78,1395.48
639,1004-1-2,Engelsvatnet,26478,6.66434637055674,58.2269857445314,blr,58006011,1978-1982,783.35,759.9900000000001,1543.3400000000001,1476.38
640,1004-1-21,Skultjørnan,26479,6.63707960774574,58.536357168284,blr,58506015,1978-1982,686.52,696.3400000000001,1382.8600000000001,1334.42
641,1004-2-6,Djupvatnet,26480,6.71443908823616,58.4995642757385,blr,58006003,1978-1982,609.98,607.44,1217.42,1172.02
642,1017-1-14,Gyvatnet,26481,7.71323374156413,58.2890547929466,blr,58007007,1978-1982,805.59,737.18,1542.77,1481.94
643,1017-1-31,Gardvatnet,26482,7.59740387458074,58.3186030141985,blr,58007007,1978-1982,805.59,737.18,1542.77,1481.94
644,1021-1-27,Grunnevatnet,26483,7.59730092749079,58.2465951951619,blr,58007011,1978-1982,757.59,699.0600000000001,1456.65,1402.05
645,1021-1-61,Kringlevatnet,26484,7.6664820394067,58.1886781030256,blr,58007011,1978-1982,757.59,699.0600000000001,1456.65,1402.05
646,1026-1-6,HOH 737,26485,7.19089728189341,58.6646337106997,blr,58507009,1978-1982,624.08,616.64,1240.72,1189.05
647,1026-1-10,HOH 875,26486,7.2005672855692,58.8295900885084,blr,58507005,1978-1982,619.25,615.1500000000001,1234.4,1189.45
648,1026-2-10,Kjosevatn,26487,7.63956721099372,58.7501797502157,blr,58507007,1978-1982,475.3,468.63000000000005,943.9300000000001,911.54
649,1026-2-20,Storevatn,26488,7.43084457453032,58.7664830600892,blr,58507006,1978-1982,535.04,525.8899999999999,1060.9299999999998,1014.39
650,1026-3-3,Langevatn,26491,7.36629876396766,58.8125720450285,blr,58507006,1978-1982,535.04,525.8899999999999,1060.9299999999998,1014.39
651,1026-3-18,Storevatnet,26492,7.22890179112086,58.7505908574839,blr,58507005,1978-1982,619.25,615.1500000000001,1234.4,1189.45
652,1026-3-19,Ljoslandsvatnet,26493,7.37108873032463,58.7536202151644,blr,58507006,1978-1982,535.04,525.8899999999999,1060.9299999999998,1014.39
653,1029-1-26,Vassåkervatnet,26494,7.39292279527645,58.0723176520464,blr,58007014,1978-1982,973.38,931.2500000000001,1904.63,1755.86
654,1032-2-4,Jovatnet,26495,7.12796336778336,58.1700024282253,blr,58007009,1978-1982,801.78,752.9100000000001,1554.69,1493.99
655,1032-2-13,Hagevatnet,26496,7.08703581502924,58.1946459535829,blr,58007009,1978-1982,801.78,752.9100000000001,1554.69,1493.99
656,1034-1-4,Grantjørni,26497,7.12018181812587,58.58296781349,blr,58507013,1978-1982,636.22,629.1000000000001,1265.3200000000002,1213.67
657,1034-2-22,Bjønnvatn,26499,7.24077795346034,58.5705798968225,blr,58507013,1978-1982,636.22,629.1000000000001,1265.3200000000002,1213.67
658,1037-1-13,Husbrytjørn,26500,6.98096316339324,58.4367633101483,blr,58006004,1978-1982,701.24,691.05,1392.29,1330.89
659,1037-2-14,Hellartjern,26501,7.03899384227484,58.7232091057653,blr,58507009,1978-1982,624.08,616.64,1240.72,1189.05
660,1046-1-8,Småtjørnan,26503,6.80299227580454,58.6432600986347,blr,58506012,1978-1982,650.64,656.8000000000001,1307.44,1268.85
661,1046-1-11,HOH 573,26504,6.7212388439884,58.7803131848396,blr,58506007,1978-1982,661.37,685.85,1347.22,1302.8
662,1046-1-12,HOH 760,26505,6.63954476059344,58.8069650259268,blr,58506007,1978-1982,661.37,685.85,1347.22,1302.8
663,1046-1-15,HOH 1041,26506,6.62821299890883,58.9392982276755,blr,58506003,1978-1982,606.39,650.8000000000001,1257.19,1201.75
664,1046-1-20,Litle Svartevatnet,26507,6.48779883876442,58.6566362753105,blr,58506010,1978-1982,795.31,820.9000000000001,1616.21,1563.48
665,1046-1-24,HOH 944,26508,6.67010660546782,58.9624990707547,blr,58506003,1978-1982,606.39,650.8000000000001,1257.19,1201.75
666,1046-1-30,HOH 739,26509,6.5483221213005,58.7846619345715,blr,58506007,1978-1982,661.37,685.85,1347.22,1302.8
667,1046-1-33,HOH 850,26510,6.59171495171848,58.8569984206159,blr,58506007,1978-1982,661.37,685.85,1347.22,1302.8
668,1046-2-9,HOH 860,26511,7.1017671469813,58.9410118385951,blr,58507001,1978-1982,374.0,387.39,761.39,730.04
669,1046-2-12,Indre Skeidsvatn,26512,6.65118918285434,58.7843123663041,blr,58506007,1978-1982,661.37,685.85,1347.22,1302.8
670,1046-2-15,Krokevatn,26513,6.89683695601398,58.8157006237118,blr,58506008,1978-1982,660.32,666.5200000000001,1326.8400000000001,1287.82
671,1046-2-17,Åsmundsvatnet,26514,6.79731158931634,58.6141619721584,blr,58506016,1978-1982,698.55,707.4199999999998,1405.9699999999998,1343.8
672,1046-2-21,Falketjørnene,26515,7.04722834864375,58.9369840866242,blr,58507001,1978-1982,374.0,387.39,761.39,730.04
673,1046-2-23,Vassfellet,26516,6.80765165515418,58.9950881010443,blr,58506004,1978-1982,646.85,701.4700000000001,1348.3200000000002,1307.85
674,1046-2-24,Flåvatnet,26517,6.80201669218655,58.5820581794018,blr,58506016,1978-1982,698.55,707.4199999999998,1405.9699999999998,1343.8
675,1046-2-30,Avedalsvatnet,26518,6.7689388224254,58.625660236574,blr,58506012,1978-1982,650.64,656.8000000000001,1307.44,1268.85
676,1046-3-9,Guddilsvatnet,26519,6.90208709112093,58.7955907213563,blr,58506008,1978-1982,660.32,666.5200000000001,1326.8400000000001,1287.82
677,1046-3-15,Storavatnet,26520,6.97015304191858,58.8354345287412,blr,58506008,1978-1982,660.32,666.5200000000001,1326.8400000000001,1287.82
678,1046-3-17,Degjevatnet,26521,6.75684953814498,58.9546976569227,blr,58506004,1978-1982,646.85,701.4700000000001,1348.3200000000002,1307.85
679,1046-3-20,Bjørnestadvatnet,26522,6.61720113149736,58.6620639260544,blr,58506011,1978-1982,702.78,725.3399999999999,1428.12,1379.81
680,1046-3-21,Langavatn,26523,6.62870084471326,58.8143850224145,blr,58506007,1978-1982,661.37,685.85,1347.22,1302.8
681,1101-3-8,Revsvatnet,26524,6.12260683447984,58.4677306076974,blr,58006001,1978-1982,900.0,800.0,1700.0,1600.0
682,1102-1-35,Auratjørna,26525,6.05142906766229,58.8619177798337,blr,58506005,1978-1982,727.23,772.02,1499.25,1430.9
683,1102-2-14,Skjelbreidtjørna,26526,5.86172406309993,58.8263859240609,blr,58505008,1978-1982,666.54,707.79,1374.33,1309.9
684,1111-1-1,Øygardstjørna,26527,6.41614132323416,58.4214795483357,blr,58006002,1978-1982,860.62,868.2299999999999,1728.85,1650.66
685,1112-1-10,Saurtjørni,26528,6.30695813906567,58.5083706417664,blr,58506014,1978-1982,912.73,949.5999999999999,1862.33,1796.07
686,1112-2-7,Glessjor,26529,6.36242328519871,58.539166784265,blr,58506014,1978-1982,912.73,949.5999999999999,1862.33,1796.07
687,1112-4-1,Lundevatnet,26530,6.47556999877061,58.3005918507877,blr,58006006,1978-1982,784.88,774.7799999999999,1559.6599999999999,1489.95
688,1114-1-7,Hellevatnet,26531,6.12491775792083,58.6230141950358,blr,58506013,1978-1982,846.95,902.6699999999998,1749.62,1675.4
689,1114-1-8,HOH 710,26532,6.4605474946197,58.7318568011276,blr,58506010,1978-1982,795.31,820.9000000000001,1616.21,1563.48
690,1114-1-21,Holatjørni,26533,6.4730623356463,58.6765023063776,blr,58506010,1978-1982,795.31,820.9000000000001,1616.21,1563.48
691,1114-1-33,HOH 690,26534,6.46079896233485,58.6918772814435,blr,58506010,1978-1982,795.31,820.9000000000001,1616.21,1563.48
692,1114-2-4,HOH 712,26535,6.59999277673189,58.7247718458951,blr,58506011,1978-1982,702.78,725.3399999999999,1428.12,1379.81
693,1114-2-25,Butjørnane,26536,5.90470724545879,58.6137922885676,blr,58505016,1978-1982,768.63,817.7199999999999,1586.35,1515.19
694,1114-3-4,Hofreistævatnet,26537,6.16286535365792,58.6681742903718,blr,58506009,1978-1982,813.42,867.0099999999999,1680.4299999999998,1609.41
695,1114-3-10,Indra Vinjavatnet,26538,6.21932937381661,58.7479013592835,blr,58506009,1978-1982,813.42,867.0099999999999,1680.4299999999998,1609.41
696,1119-1-25,Lauvåsvatnet,26539,5.84147987544688,58.5171481837318,blr,58505016,1978-1982,768.63,817.7199999999999,1586.35,1515.19
697,1120-3-1,Horpestadvatnet,26540,5.5558298585142,58.7368998951515,blr,58505011,1978-1982,735.85,795.35,1531.2,1399.84
698,1121-2-17,Snorestadtjørnane,26541,5.83610980740426,58.6911572241488,blr,58505012,1978-1982,727.41,773.87,1501.28,1433.84
699,1122-1-2,HOH 850,26542,6.55881779624845,58.8456333957696,blr,58506007,1978-1982,661.37,685.85,1347.22,1302.8
700,1122-1-3,HOH 770,26543,6.32989967483884,58.8117549579715,blr,58506006,1978-1982,740.92,794.2999999999998,1535.2199999999998,1467.67
701,1122-1-4,Kalvedalsvatnet,26544,6.3307326581702,58.8070097792295,blr,58506006,1978-1982,740.92,794.2999999999998,1535.2199999999998,1467.67
702,1122-1-12,Langatjørn,26545,6.53958463720185,58.9136415082326,blr,58506003,1978-1982,606.39,650.8000000000001,1257.19,1201.75
703,1122-1-16,Kringlelitjørna,26546,5.93146708274687,58.7182792488446,blr,58505012,1978-1982,727.41,773.87,1501.28,1433.84
704,1122-2-2,HOH 941,26547,6.5477206610893,58.8959077129922,blr,58506003,1978-1982,606.39,650.8000000000001,1257.19,1201.75
705,1122-2-18,Øvre Bergsvatnet,26548,5.95440154517828,58.8037317774421,blr,58505008,1978-1982,666.54,707.79,1374.33,1309.9
706,1129-1-15,Reinstjørn,26550,6.85485160152709,59.1303286933383,blr,59006012,1978-1982,560.76,610.1099999999999,1170.87,1145.05
707,1129-1-23,HOH 1102,26551,6.76649917297742,59.1246831295946,blr,59006016,1978-1982,587.05,637.27,1224.32,1194.53
708,1129-1-28,Kleggadalsvatn,26552,6.67459290107708,59.1599088075451,blr,59006011,1978-1982,606.7,663.3799999999999,1270.08,1243.33
709,1129-1-32,Oalandstjørna,26553,6.18361081731508,58.9030947381703,blr,58506001,1978-1982,833.1,887.2699999999999,1720.37,1644.5
710,1129-1-36,HOH 1061,26554,6.80286649008297,59.1726210206027,blr,59006012,1978-1982,560.76,610.1099999999999,1170.87,1145.05
711,1129-2-3,Søre Erevikvatnet,26555,6.05977726908567,58.9270702424758,blr,58506001,1978-1982,833.1,887.2699999999999,1720.37,1644.5
712,1129-2-11,Troppevatnet,26556,6.17800061268036,59.0005581034495,blr,59006013,1978-1982,705.28,754.3599999999999,1459.6399999999999,1400.05
713,1129-2-12,HOH 1029,26557,6.71485183082055,59.1545856503412,blr,59006011,1978-1982,606.7,663.3799999999999,1270.08,1243.33
714,1129-2-15,Vongsatjørnane,26558,6.40275345294044,59.073142097038,blr,59006014,1978-1982,570.54,614.71,1185.25,1135.81
715,1129-2-28,Rundatjørna,26559,6.36905928436497,59.0639540794191,blr,59006014,1978-1982,570.54,614.71,1185.25,1135.81
716,1129-2-53,Svartavatnet,26560,6.41225340967825,58.9756466512908,blr,58506002,1978-1982,833.59,895.83,1729.42,1657.39
717,1129-3-15,Haukalivatnet,26561,6.17429844089821,58.9292916638252,blr,58506001,1978-1982,833.1,887.2699999999999,1720.37,1644.5
718,1130-3-14,Vostervatnet,26562,6.0011687961092,59.1063772810406,blr,59006013,1978-1982,705.28,754.3599999999999,1459.6399999999999,1400.05
719,1133-1-18,HOH 920,26563,6.51666057080879,59.1754625515553,blr,59006011,1978-1982,606.7,663.3799999999999,1270.08,1243.33
720,1133-1-24,Eikelivatnet,26564,6.34023965436025,59.2531224163843,blr,59006006,1978-1982,668.74,733.81,1402.55,1376.63
721,1133-1-30,HOH 1080,26565,6.73925984556158,59.3136380950296,blr,59006007,1978-1982,525.74,580.1800000000001,1105.92,1093.44
722,1133-2-1,Heimra Svartavatnet,26566,6.53010317724822,59.3370574110295,blr,59006007,1978-1982,525.74,580.1800000000001,1105.92,1093.44
723,1133-2-23,HOH 1111,26568,6.80805272165141,59.2209886515637,blr,59006012,1978-1982,560.76,610.1099999999999,1170.87,1145.05
724,1133-2-29,Brokavatnet,26569,6.2292592916213,59.0756070173495,blr,59006013,1978-1982,705.28,754.3599999999999,1459.6399999999999,1400.05
725,1133-2-603,Ø.Tysdalsvatn,26570,6.25868989852815,59.1377327057821,blr,59006010,1978-1982,576.71,625.7,1202.41,1155.99
726,1134-1-27,HOH 1250,26571,6.93090633566952,59.5569543865708,blr,59506016,1978-1982,612.32,671.2100000000002,1283.5300000000002,1261.45
727,1134-2-8,Leirdålsvatna,26572,6.94624058771898,59.4903719760398,blr,59006004,1978-1982,571.25,626.3699999999999,1197.62,1178.25
728,1134-2-24,Heimsvatnet,26573,6.3082559409997,59.4526631779353,blr,59006002,1978-1982,478.07,537.23,1015.3,1020.53
729,1135-1-19,Breiborgvatnet,26575,6.56338231555936,59.7215892108949,blr,59506011,1978-1982,429.74,479.8399999999999,909.5799999999999,900.73
730,1135-2-10,Løyndardalsvatnet,26576,6.35858142821524,59.7520555873994,blr,59506006,1978-1982,396.28,441.25,837.53,828.35
731,1135-2-13,Søre Dyrskardsvatnet,26577,6.59517219965727,59.8292203983715,blr,59506007,1978-1982,442.97,494.65,937.62,928.71
732,1135-3-3,Førstadvatnet,26578,6.56121508780844,59.694781562671,blr,59506011,1978-1982,429.74,479.8399999999999,909.5799999999999,900.73
733,1146-1-5,Bongsatjørna,26579,5.43871879891993,59.419629245378,blr,59005002,1978-1982,637.21,742.3699999999999,1379.58,1365.73
734,1146-1-26,Lauvskardvatnet,26580,5.72133023395764,59.3593403957169,blr,59005007,1978-1982,692.98,750.01,1442.99,1242.59
735,1146-2-6,Ådnavatnet,26581,5.43088251801275,59.3635960203098,blr,59005006,1978-1982,580.99,647.1499999999999,1228.1399999999999,1189.49
736,1146-2-19,Nordre Vadvatnet,26582,5.44115863378413,59.309056643237,blr,59005006,1978-1982,580.99,647.1499999999999,1228.1399999999999,1189.49
737,1146-2-22,Gåsavatnet,26583,5.56913673125315,59.3842716182546,blr,59005003,1978-1982,575.21,635.98,1211.19,1108.62
738,1149-1-6,Steinsvatnet,26584,5.36105967140197,59.3036774872849,blr,59005006,1978-1982,580.99,647.1499999999999,1228.1399999999999,1189.49
739,1149-2-26,Heiavatnet,26585,5.22310074031648,59.2718777571499,blr,59005005,1978-1982,616.17,693.2799999999999,1309.4499999999998,1161.21
740,1154-3-9,Gjerdesdalsvatnet,26586,5.79692971573604,59.516449317835,blr,59505016,1978-1982,708.73,825.95,1534.68,1565.17
741,1154-3-16,Fjellgardsvatnet,26587,5.99866288548755,59.5551710448784,blr,59505016,1978-1982,708.73,825.95,1534.68,1565.17
742,1201-1-36,Storavatnet,26588,5.3005342910873,60.2342370756604,blr,60005010,1978-1982,815.73,1014.69,1830.42,1764.66
743,1201-1-45,Stemmevatnet,26589,5.43985892550269,60.4431421712536,blr,60005002,1978-1982,824.1,1051.08,1875.1799999999998,1888.18
744,1211-1-11,Vierdalsvatnet (Skålnesv.),26590,6.29286728829205,59.8156284500223,blr,59506006,1978-1982,396.28,441.25,837.53,828.35
745,1211-1-26,HOH 914,26591,6.4890055567399,59.8304060100643,blr,59506006,1978-1982,396.28,441.25,837.53,828.35
746,1216-2-12,Krossvikevatnet,26592,5.42472477895237,59.5416150624693,blr,59505014,1978-1982,598.09,696.0299999999999,1294.12,1282.93
747,1216-2-13,Mannavatnet,26593,5.36725725467359,59.5449936186955,blr,59505014,1978-1982,598.09,696.0299999999999,1294.12,1282.93
748,1216-3-11,Storavatnet,26594,5.33967743685652,59.5972839039199,blr,59505014,1978-1982,598.09,696.0299999999999,1294.12,1282.93
749,1219-1-2,Grindavatnet,26595,5.18722409789121,59.7862850760423,blr,59505005,1978-1982,498.62,586.4399999999999,1085.06,1086.42
750,1219-1-22,Stemmevatnet,26596,5.19486262785057,59.6818610960844,blr,59505009,1978-1982,479.82,553.1800000000001,1033.0,1010.6
751,1219-1-29,Eriksvatnet,26597,5.16352245543251,59.6618086069253,blr,59505009,1978-1982,479.82,553.1800000000001,1033.0,1010.6
752,1223-1-40,Øvre Vermedalsvatn,26598,5.55800427310731,59.9799940642055,blr,59505003,1978-1982,590.18,698.92,1289.1,1331.62
753,1223-2-37,Skartveitvatnet,26599,5.59740174344938,59.9751618558901,blr,59505003,1978-1982,590.18,698.92,1289.1,1331.62
754,1224-1-31,Hammarsvatnet,26600,6.19631715339313,60.1284513124374,blr,60006009,1978-1982,451.76,554.11,1005.87,974.59
755,1224-2-14,HOH 1051,26601,6.17530068991137,59.9422281603195,blr,59506001,1978-1982,436.78,515.05,951.8299999999999,979.48
756,1224-2-25,Mannsvatnet,26602,5.92789631208546,59.9247255323293,blr,59505004,1978-1982,551.26,652.8999999999999,1204.1599999999999,1242.06
757,1224-2-30,Insta Bukkaspelvatnet,26603,6.3923061936758,60.1531069585086,blr,60006010,1978-1982,324.89,373.80000000000007,698.69,701.15
758,1224-2-39,Tveitedalsvatnet,26604,6.21159257660051,60.0788293840483,blr,60006013,1978-1982,439.74,530.82,970.5600000000001,980.78
759,1228-1-12,HOH 1367,26606,6.82136059541347,60.0289245356231,blr,60006016,1978-1982,349.32,391.47999999999996,740.8,745.81
760,1228-1-13,HOH 1263,26607,7.0597027378934,59.9786488544576,blr,59507001,1978-1982,346.73,388.53999999999996,735.27,740.61
761,1228-1-21,Litlavatn,26608,6.85080849362122,59.8869982267964,blr,59506004,1978-1982,346.81,388.67,735.48,740.53
762,1228-1-42,HOH 1166,26609,6.49175425770531,59.9994418454643,blr,59506002,1978-1982,395.05,439.89000000000004,834.94,825.81
763,1228-2-9,HOH 1110,26610,6.63413554781033,59.8443582528536,blr,59506007,1978-1982,442.97,494.65,937.62,928.71
764,1228-3-4,Kaldevatn,26611,7.00930799898981,59.8093135470128,blr,59507005,1978-1982,343.36,371.26,714.62,700.81
765,1231-1-7,HOH 1342,26612,7.46980176614952,60.1039766027104,blr,60007014,1978-1982,280.52,305.28999999999996,585.81,600.17
766,1231-1-9,HOH 1274,26613,7.32489410813618,60.0614588694442,blr,60007014,1978-1982,280.52,305.28999999999996,585.81,600.17
767,1231-1-14,HOH 1253,26614,6.96143653295809,60.2641719896626,blr,60006008,1978-1982,367.35,422.15999999999997,789.51,812.82
768,1231-2-2,Kjølo,26615,6.88203054607842,60.2536777570013,blr,60006008,1978-1982,367.35,422.15999999999997,789.51,812.82
769,1231-2-7,HOH 1343,26616,7.16867742300908,60.190263893251,blr,60007009,1978-1982,307.73,344.74,652.47,657.74
770,1231-2-24,Trollavatnet,26617,6.91420571535035,60.3255334443873,blr,60006008,1978-1982,367.35,422.15999999999997,789.51,812.82
771,1231-3-20,Litlosvatnet,26618,7.16784183601254,60.0730136849438,blr,60007013,1978-1982,338.5,379.27,717.77,723.14
772,1232-1-3,HOH 1200,26619,7.62276859176344,60.4587699753945,blr,60007003,1978-1982,283.58,311.19,594.77,618.1
773,1232-1-4,HOH 1324,26620,7.3638870604766,60.1270425185557,blr,60007010,1978-1982,313.9,344.62,658.52,682.5
774,1232-1-37,HOH 1360,26621,7.52740480549304,60.4784135959397,blr,60007003,1978-1982,283.58,311.19,594.77,618.1
775,1232-2-1,Inste Olavsbuvatni,26622,7.63408730577482,60.4300502141353,blr,60007003,1978-1982,283.58,311.19,594.77,618.1
776,1232-3-18,Nordvatnet,26623,7.40414902890097,60.226184010795,blr,60007010,1978-1982,313.9,344.62,658.52,682.5
777,1233-1-10,HOH 1240,26624,7.28818170585929,60.600216802747,blr,60507014,1978-1982,296.23,345.61,641.84,689.37
778,1233-2-15,HOH 1232,26625,7.37325313895493,60.6519680820394,blr,60507010,1978-1982,204.24,236.03999999999996,440.28,463.45
779,1233-2-27,Kvannjolvatnet,26626,6.99019223948837,60.6491622777502,blr,60506012,1978-1982,344.0,405.65,749.65,781.82
780,1233-2-31,HOH 1410,26627,7.4415439252597,60.6575911962198,blr,60507010,1978-1982,204.24,236.03999999999996,440.28,463.45
781,1234-3-2,Granvinsvatnet,26628,6.72991953225432,60.5353297693854,blr,60506015,1978-1982,355.27,429.15,784.42,846.34
782,1235-1-8,HOH 1241,26629,6.34029593752928,60.5491475777654,blr,60506014,1978-1982,407.1,491.90999999999997,899.01,970.19
783,1235-1-30,HOH 1056,26630,6.36518753114156,60.7338049603425,blr,60506010,1978-1982,386.99,473.18000000000006,860.1700000000001,927.25
784,1235-2-38,Grønlivatnet,26631,6.59066812447131,60.5626648655197,blr,60506015,1978-1982,355.27,429.15,784.42,846.34
785,1235-3-14,Storavatnet,26632,6.38266097673389,60.4906378479097,blr,60006002,1978-1982,327.02,394.65,721.67,764.36
786,1238-2-23,Øyjordsvatnet,26633,6.11969213561613,60.2652518932212,blr,60006005,1978-1982,542.55,672.24,1214.79,1216.96
787,1238-2-42,Djupebottvatnet,26634,6.35554457428469,60.4912592141814,blr,60006002,1978-1982,327.02,394.65,721.67,764.36
788,1238-3-15,Myklavatnet,26635,6.09118500432524,60.4077561376258,blr,60006001,1978-1982,446.16,557.3399999999999,1003.5,1078.48
789,1241-1-18,Svinasteinstjørna,26636,5.7693793373134,60.1342536667948,blr,60005012,1978-1982,549.75,678.0900000000001,1227.8400000000001,1243.34
790,1241-2-41,Skjelbreidvatnet,26637,5.77128764053143,60.2451001911979,blr,60005012,1978-1982,549.75,678.0900000000001,1227.8400000000001,1243.34
791,1242-2-3,Fiskevatnet,26638,5.809986257024,60.4186143875485,blr,60005004,1978-1982,518.66,656.4599999999999,1175.12,1278.38
792,1246-1-15,Kvernavatnet,26639,5.00536528655345,60.4382720144014,blr,60005001,1978-1982,492.38,628.5400000000001,1120.92,1224.31
793,1252-2-8,HOH 1019,26640,6.04429015889237,61.00606338735,blr,61006013,1978-1982,293.16,373.66,666.82,698.73
794,1252-2-21,Nedre Sørdalsvatnet,26641,6.08957951684038,60.9595712521904,blr,60506001,1978-1982,361.67,461.69,823.36,856.09
795,1256-3-13,Storavatnet,26642,5.1007182008481,60.5594449428786,blr,60505013,1978-1982,370.26,490.4100000000001,860.6700000000001,975.52
796,1260-2-20,Færevatnet,26643,4.96529172351653,60.7055139157007,blr,60504012,1978-1982,444.72,582.77,1027.49,1153.98
797,1260-2-28,Kvalheimsvatnet,26644,4.94653596260221,60.6834610587245,blr,60504012,1978-1982,444.72,582.77,1027.49,1153.98
798,1263-2-33,Hundvensvatnet,26645,5.25083147035882,60.6632343625511,blr,60505010,1978-1982,606.89,783.17,1390.06,1559.33
799,1263-2-36,Sandvikavatnet,26646,5.36116323318686,60.6092584709708,blr,60505014,1978-1982,566.4,721.15,1287.55,1319.56
800,1266-1-24,HOH 800,26647,5.79906581204766,60.9234975883271,blr,60505004,1978-1982,432.69,552.95,985.6400000000001,1018.94
801,1266-2-6,Nordrevotni,26648,5.71095967611601,60.9258131042041,blr,60505003,1978-1982,379.61,513.88,893.49,1015.98
802,1266-2-10,Svadfjellvatni,26649,5.78812443243309,60.97876920593,blr,60505004,1978-1982,432.69,552.95,985.6400000000001,1018.94
803,1266-2-35,Klefjellvatni,26650,5.47439320365041,60.7549186232546,blr,60505006,1978-1982,482.59,647.1700000000001,1129.76,1300.98
804,1401-1-8,Urdavatnet,26651,5.01006243604079,61.652599118425,blr,61505009,1978-1982,273.17,391.7300000000001,664.9000000000001,797.12
805,1401-1-27,HOH 530,26652,5.30059942022701,61.6627731407891,blr,61505010,1978-1982,333.48,467.95000000000005,801.4300000000001,948.78
806,1411-1-10,Maletjørna,26653,5.08832583148769,60.9251308961365,blr,60505001,1978-1982,385.84,520.6000000000001,906.44,1041.14
807,1412-1-9,Gardavatnet,26654,4.6957094059324,61.0292316955105,blr,61004015,1978-1982,306.14,415.30000000000007,721.44,816.24
808,1412-1-19,Krokevatnet,26655,4.78635852072273,61.0662959447917,blr,61004016,1978-1982,479.79,651.0900000000001,1130.88,1301.34
809,1412-2-7,Engevikvatnet,26656,4.96582128556072,61.1654742360355,blr,61004012,1978-1982,414.19,563.1099999999999,977.3,1122.77
810,1413-1-33,Gåsevatnet,26657,5.32576131278042,61.1727331487242,blr,61005010,1978-1982,379.49,517.23,896.72,1022.12
811,1416-1-3,Tirskardvatnet,26658,5.84121101115209,61.1964839718776,blr,61005012,1978-1982,494.48,643.79,1138.27,1197.97
812,1416-1-21,Dyttingane,26659,5.92386268365943,61.0982296318884,blr,61005016,1978-1982,439.3,561.6600000000001,1000.96,1032.04
813,1416-2-28,HOH 729,26660,5.65474861733566,60.9935850427246,blr,60505003,1978-1982,379.61,513.88,893.49,1015.98
814,1417-1-29,HOH 1171,26661,6.53113048443226,60.9382363690779,blr,60506003,1978-1982,244.55,310.63000000000005,555.1800000000001,605.83
815,1420-1-1,Kollsetervatnet,26662,6.96029683857583,61.2748841015024,blr,61006008,1978-1982,225.41,288.12,513.53,569.06
816,1420-2-12,Storavatnet,26663,6.94106496044269,61.2561415373815,blr,61006008,1978-1982,225.41,288.12,513.53,569.06
817,1420-3-20,Dalavatnet,26664,7.00552853900507,61.297996444254,blr,61007005,1978-1982,232.45,293.2300000000001,525.6800000000001,588.1
818,1421-1-11,HOH 1036,26665,6.91348287515774,60.8896400042883,blr,60506004,1978-1982,245.07,312.23999999999995,557.31,603.22
819,1421-1-26,Øvre Leitevatnet,26666,7.39627367670327,60.9339437323012,blr,60507002,1978-1982,150.37,179.74,330.11,336.26
820,1421-2-15,Øv.Sleipåvotni,26667,7.58949265441742,60.8576725712206,blr,60507007,1978-1982,158.17,189.34,347.51,355.11
821,1421-2-31,Sleipåvotni,26668,7.55881254555123,60.8522716057204,blr,60507007,1978-1982,158.17,189.34,347.51,355.11
822,1421-3-24,HOH 1455,26670,7.41296513660549,60.685420052623,blr,60507010,1978-1982,204.24,236.03999999999996,440.28,463.45
823,1421-3-26,Norddalsvatnet,26671,7.43050754885882,60.9512661403688,blr,60507002,1978-1982,150.37,179.74,330.11,336.26
824,1421-3-30,Hednedalsvatnet,26672,7.37303840603625,60.737098655627,blr,60507010,1978-1982,204.24,236.03999999999996,440.28,463.45
825,1422-1-2,HOH 1539,26673,7.77964832552942,60.9764304522216,blr,60507004,1978-1982,203.68,237.03000000000003,440.71000000000004,455.13
826,1422-1-4,Fossavotni,26674,7.47973300068715,60.9815505852023,blr,60507002,1978-1982,150.37,179.74,330.11,336.26
827,1422-2-19,Langetjørnane,26675,7.86434829445603,61.1520532880646,blr,61007012,1978-1982,186.78,220.47,407.25,425.84
828,1422-2-25,Æråkstjørni,26676,7.92900630990176,61.0468672587467,blr,61007016,1978-1982,190.96,223.30999999999997,414.27,428.58
829,1422-3-18,Starsjøen,26677,8.01942403030433,60.9607640049147,blr,60508001,1978-1982,181.39,205.46000000000004,386.85,397.4
830,1424-1-12,Fjellvatnet,26678,7.61692640923749,61.1503741218995,blr,61007011,1978-1982,164.43,199.62,364.05,384.57
831,1424-1-14,Reinsgravtjørni,26679,7.79571977267114,61.1313006524043,blr,61007012,1978-1982,186.78,220.47,407.25,425.84
832,1424-2-11,HOH 1430,26680,7.65529290113022,61.4037854257795,blr,61007003,1978-1982,204.82,250.66000000000003,455.48,485.47
833,1424-2-30,Hyttedalsvatnet,26681,7.64188294197175,61.4283526939562,blr,61007003,1978-1982,204.82,250.66000000000003,455.48,485.47
834,1426-1-6,HOH 1335,26682,7.67450991015068,61.4510668971243,blr,61007003,1978-1982,204.82,250.66000000000003,455.48,485.47
835,1426-1-22,HOH 1475,26683,7.43575896423809,61.7019252491364,blr,61507010,1978-1982,143.14,178.15999999999997,321.29999999999995,351.19
836,1426-1-23,Røykjedalsvatnet,26684,7.16541693138788,61.6042576716009,blr,61507013,1978-1982,237.0,300.5,537.5,606.71
837,1426-2-13,HOH 1488,26685,8.29011285773043,61.4346213893816,blr,61008002,1978-1982,89.49,99.54,189.03,185.63
838,1426-2-22,Nedre Mjølkedalstjørn,26686,8.21831399443475,61.4619104480009,blr,61008001,1978-1982,77.69,90.75,168.44,169.26
839,1426-3-19,Åsetvatnet,26687,7.58365037048346,61.5504899961755,blr,61507015,1978-1982,129.85,159.31999999999996,289.16999999999996,305.34
840,1428-1-18,Tobbedalsvatnet,26688,5.46677613765058,61.4254789800456,blr,61005002,1978-1982,438.23,618.3699999999999,1056.6,1203.25
841,1428-2-32,Sætrevatnet,26689,4.95958652306786,61.3241519943837,blr,61004008,1978-1982,340.89,476.39,817.28,958.87
842,1428-3-7,Hærlandsvatnet,26690,4.91168230237514,61.3608618124539,blr,61004008,1978-1982,340.89,476.39,817.28,958.87
843,1429-2-10,Botnatjørna,26691,5.33489855149464,61.2939993150606,blr,61005006,1978-1982,423.27,576.14,999.41,1147.1
844,1430-1-13,Jakobsvatnet,26692,5.9374468644201,61.2891269455416,blr,61005008,1978-1982,402.94,528.56,931.5,996.95
845,1430-1-65,HOH 520,26693,5.87385303493619,61.3576670863479,blr,61005008,1978-1982,402.94,528.56,931.5,996.95
846,1431-2-5,Gjesdalsvatnet,26694,6.22014896073301,61.4671421450816,blr,61006001,1978-1982,171.88,232.65999999999997,404.53999999999996,451.39
847,1431-2-26,HOH 1308,26695,6.66134864136841,61.5409633363763,blr,61506015,1978-1982,224.09,294.39,518.48,569.0
848,1431-2-35,Håheimsvatnet,26696,6.51171573539298,61.5956580049153,blr,61506015,1978-1982,224.09,294.39,518.48,569.0
849,1431-4-6,Jølstravatnet,26698,6.11313580017648,61.4922847836443,blr,61006001,1978-1982,171.88,232.65999999999997,404.53999999999996,451.39
850,1432-1-7,Nordvatnet,26699,6.12281124271671,61.5703704405491,blr,61506013,1978-1982,294.04,397.1000000000001,691.1400000000001,770.32
851,1432-1-25,Nes-Isvatnet,26700,6.32051304309099,61.4345700632836,blr,61006002,1978-1982,170.07,229.63,399.7,446.66
852,1432-3-15,Gjerlands-Isvatnet,26701,6.32811582750205,61.4452296143094,blr,61006002,1978-1982,170.07,229.63,399.7,446.66
853,1433-1-37,Svartevatnet,26702,5.69083237654391,61.5519283944457,blr,61505015,1978-1982,373.8,542.1200000000001,915.9200000000001,993.42
854,1433-3-23,Trodalsvatnet,26703,5.96726965595724,61.5573176033057,blr,61505016,1978-1982,258.06,350.91,608.97,688.06
855,1438-2-23,L. Snønykevatnet,26704,5.56568681088468,61.7804738667596,blr,61505007,1978-1982,300.3,417.96999999999997,718.27,850.08
856,1438-2-59,Sørdalsvatnet,26705,5.02398958108044,61.7071376819082,blr,61505009,1978-1982,273.17,391.7300000000001,664.9000000000001,797.12
857,1438-3-1,Handklevatnet,26706,5.24820861038761,61.678403504377,blr,61505009,1978-1982,273.17,391.7300000000001,664.9000000000001,797.12
858,1441-3-29,Dalsbøvatnet,26707,5.16846153272747,62.1613892462491,blr,62005009,1978-1982,162.12,217.72000000000003,379.84000000000003,466.56
859,1443-1-40,Byrjevatnet,26708,6.18494528650878,62.0037939543924,blr,62006013,1978-1982,248.73,345.94999999999993,594.68,740.68
860,1445-2-3,Vardevatnet,26709,6.27372590372235,61.720690123899,blr,61506010,1978-1982,199.49,265.57,465.06,513.76
861,1445-2-8,Skjerdalsvatnet,26710,5.92921915197772,61.8062119599196,blr,61505008,1978-1982,258.91,355.04,613.95,739.18
862,1445-2-9,Blådalsvatnet,26711,6.33410599809383,61.6589327007164,blr,61506010,1978-1982,199.49,265.57,465.06,513.76
863,1449-4-2,Lovatnet,26712,6.88921253581977,61.8599582698113,blr,61506008,1978-1982,191.46,242.63000000000002,434.09000000000003,486.16
864,1502-1-25,Årsetvatn,26713,7.52861894701805,62.7265969248412,blr,62507011,1978-1982,170.36,237.12,407.48,441.01
865,1504-1-13,Svartevatnet,26714,6.5411382118362,62.4570023829693,blr,62006003,1978-1982,181.55,259.16,440.71000000000004,512.57
866,1511-1-7,Vassdalsvatnet,26715,5.67546404416916,62.0211140562317,blr,62005015,1978-1982,238.19,337.85999999999996,576.05,697.45
867,1511-3-13,Myrkevatnet,26716,5.82003644722039,62.1340848989644,blr,62005012,1978-1982,265.54,377.21999999999997,642.76,792.75
868,1519-3-10,Rotevatnet,26717,6.09388591148653,62.144170987708,blr,62006009,1978-1982,225.94,314.94,540.88,669.68
869,1520-1-5,Urdvatn,26718,6.74599396818827,62.1473713468129,blr,62006011,1978-1982,183.93,239.95,423.88,491.16
870,1524-2-17,Gullakoppen,26719,7.28540372206027,62.3350154347328,blr,62007006,1978-1982,223.14,280.34,503.47999999999996,572.99
871,1525-1-12,Nykkjevatn,26720,6.91846805594164,62.1355160546594,blr,62006012,1978-1982,218.21,281.75,499.96000000000004,572.93
872,1525-2-601,Heimste Vesteråsvatnet,26721,7.30282613037987,62.1217995519359,blr,62007014,1978-1982,181.41,230.23999999999998,411.65,461.35
873,1526-2-13,Litlevatnet,26723,7.32092853129273,62.4348907957255,blr,62007002,1978-1982,172.86,242.38,415.24,447.73
874,1529-3-5,Engsetvatnet,26724,6.61813664026593,62.5312771867335,blr,62506015,1978-1982,193.8,283.44,477.24,550.65
875,1535-2-10,S. Oterskarvatn,26725,6.85621828484595,62.5841430192555,blr,62506016,1978-1982,231.79,314.9100000000001,546.7,642.8
876,1539-1-1,HOH 1060,26726,8.02386039893699,62.5186461471423,blr,62508013,1978-1982,178.76,236.62,415.38,461.9
877,1539-1-3,Kalkdhøtjørni,26727,8.16125160764878,62.3636350935404,blr,62008005,1978-1982,151.56,189.79000000000002,341.35,367.88
878,1539-2-6,Øspevatn,26728,7.25505398205574,62.506517461351,blr,62507014,1978-1982,224.03,339.12,563.15,633.69
879,1539-2-11,Kråkenesvatna,26729,7.78654421459835,62.4454293288804,blr,62007004,1978-1982,148.78,190.78,339.56,372.17
880,1543-1-2,Klappvatn,26730,8.05890391273954,62.7977060762102,blr,62508005,1978-1982,162.63,214.7,377.33,418.57
881,1543-2-7,Nordre Isløyptjørna,26731,8.31715042157198,62.3596576428447,blr,62008006,1978-1982,153.16,193.35999999999999,346.52,372.57
882,1563-1-4,Meskardvatnet,26732,8.93377498869735,62.6811730591234,blr,62508012,1978-1982,162.44,211.07,373.51,403.95
883,1563-2-1,Nedre Håkådalsvatnet,26733,8.65850883924818,62.4669127375678,blr,62008003,1978-1982,166.63,209.76,376.39,399.03
884,1563-3-6,Storvatnet,26734,8.8200926572025,62.5330621614422,blr,62508016,1978-1982,137.05,171.56,308.61,325.97
885,1566-1-9,Grytvatnet,26735,9.09322499762562,63.0623992591957,blr,63009013,1978-1982,129.65,174.05000000000004,303.70000000000005,332.06
886,1566-1-10,Damtjørna,26736,8.88741397108896,63.0398034412314,blr,63008016,1978-1982,188.86,263.25,452.11,509.0
887,1566-2-16,Holmevatnet,26737,9.00898547447897,63.0731998280514,blr,63009013,1978-1982,129.65,174.05000000000004,303.70000000000005,332.06
888,1569-1-8,Vasslivatnet,26738,8.58553791562133,63.2885192135534,blr,63008007,1978-1982,151.24,222.64,373.88,430.53
889,1569-2-4,Åkvikvatnet,26739,8.4738371180709,63.3385251290023,blr,63008006,1978-1982,155.61,229.01,384.62,442.9
890,1569-2-14,Rostolvatnet,26740,8.65754195903969,63.3051347165785,blr,63008007,1978-1982,151.24,222.64,373.88,430.53
891,1572-2-15,Linnvågvatnet,26741,7.95347225822943,63.1805033069827,blr,63007012,1978-1982,112.69,164.34999999999997,277.03999999999996,321.04
892,1612-3-12,Heimsvatnet,26742,9.04636208969542,63.4144907965878,blr,63009001,1978-1982,154.27,216.43000000000004,370.70000000000005,419.79
893,1613-1-18,Botntjørna,26743,9.34734109065321,63.4256359401033,blr,63009002,1978-1982,93.06,130.3,223.36,255.39
894,1613-2-7,HOH 676,26744,9.37906977225834,63.4160420933494,blr,63009002,1978-1982,93.06,130.3,223.36,255.39
895,1617-1-1,Langvatnet,26745,9.05426137529128,63.5885244176172,blr,63509013,1978-1982,186.43,261.06,447.49,506.49
896,1617-1-4,Husvatnet,26746,8.96488268668291,63.5048063953416,blr,63508016,1978-1982,172.46,243.80999999999997,416.27,472.02
897,1617-1-10,Ulvvågvatnet,26747,9.09830758680246,63.5872495798582,blr,63509013,1978-1982,186.43,261.06,447.49,506.49
898,1617-1-12,HOH 40,26748,8.77869827572653,63.6306073667628,blr,63508012,1978-1982,156.55,224.13,380.68,433.72
899,1617-2-2,Jevikvatnet,26749,8.97380612425423,63.6324534679884,blr,63508012,1978-1982,156.55,224.13,380.68,433.72
900,1617-2-6,HOH 66,26750,8.67720568175534,63.5516741963997,blr,63508015,1978-1982,157.09,233.04,390.13,450.93
901,1620-1-2,Rådalsvatnet,26751,8.76436429587996,63.7385563966858,blr,63508012,1978-1982,156.55,224.13,380.68,433.72
902,1620-2-13,Tuvnesvatnet,26752,8.63837315413265,63.7273936182757,blr,63508011,1978-1982,163.6,245.61000000000004,409.21000000000004,477.04
903,1622-1-17,Holtvatnet,26753,9.62080318581086,63.5517062475002,blr,63509015,1978-1982,170.4,233.71,404.11,460.19
904,1622-2-5,Lauvvatnet,26754,9.50820186358326,63.50368521876,blr,63509015,1978-1982,170.4,233.71,404.11,460.19
905,1624-1-23,Sørvikvatnet,26755,9.86706271564589,63.6252484502264,blr,63509012,1978-1982,192.3,291.31,483.61,580.82
906,1627-2-12,Ryvatnet,26756,9.7366057371221,63.7826320012563,blr,63509007,1978-1982,163.16,234.85,398.01,463.81
907,1630-2-14,Holmvatnet,26757,10.347018774667,64.0682991011567,blr,64010014,1978-1982,126.62,198.90999999999997,325.53,389.59
908,1630-2-20,Torsteinvatnet,26758,10.4640766147552,64.1239304749309,blr,64010014,1978-1982,126.62,198.90999999999997,325.53,389.59
909,1632-2-1,Storheitjørnin,26759,10.704278688883,64.135994760125,blr,64010011,1978-1982,157.72,248.09,405.81,485.82
910,1634-1-8,Sattja,26760,9.27329806143047,62.3993661645764,blr,62009002,1978-1982,113.75,138.27,252.02,265.05
911,1634-1-14,HOH 950,26761,9.51471864024725,62.7367191162911,blr,62509011,1978-1982,115.19,139.82,255.01,274.63
912,1634-1-20,HOH 1057,26762,8.94213587863887,62.6999718251919,blr,62508012,1978-1982,162.44,211.07,373.51,403.95
913,1634-3-2,Orkelsjøen,26763,9.89100191987273,62.5010712880255,blr,62509016,1978-1982,120.06,137.7,257.76,279.01
914,1634-3-5,Ångardsvatnet,26764,9.21129783353537,62.6659711749905,blr,62509009,1978-1982,131.16,167.03,298.19,315.24
915,1636-1-6,Litleholtvatnet,26765,9.46662166399075,63.0726062853858,blr,63009014,1978-1982,119.12,154.13,273.25,305.22
916,1636-1-15,Snipvatna,26766,9.52946562764068,62.9908035051816,blr,62509003,1978-1982,162.69,212.76,375.45,419.37
917,1638-1-16,Midtvatnet,26767,9.38844137085977,63.2663142363822,blr,63009006,1978-1982,160.05,225.68,385.73,443.48
918,1638-2-3,Husdalsvatnet,26768,9.85304355655194,63.3599609748974,blr,63009008,1978-1982,176.79,254.35999999999999,431.15,509.31
919,1640-1-9,HOH 808,26769,11.8338943612188,62.3932330654666,blr,62011004,1978-1982,115.72,136.82,252.54,288.47
920,1640-1-13,Monstjørna,26770,11.3821358477724,62.6648352355597,blr,62511010,1978-1982,135.6,165.72,301.32,344.34
921,1640-1-22,Heggrøsttjørnane,26771,12.0374932530784,62.3560422887996,blr,62012005,1978-1982,116.43,133.41,249.84,283.35
922,1640-2-17,Store Fjellsjøen,26772,11.2797081670348,62.6988552111359,blr,62511010,1978-1982,135.6,165.72,301.32,344.34
923,1640-2-19,Vedtjørna,26773,11.4927667065934,62.638640440615,blr,62511010,1978-1982,135.6,165.72,301.32,344.34
924,1640-3-3,Djupsjøen,26774,11.4892584968737,62.5989987394037,blr,62511014,1978-1982,151.49,183.38,334.87,385.58
925,1640-3-4,Styggsjøane,26775,12.1682052195872,62.3486516796197,blr,62012005,1978-1982,116.43,133.41,249.84,283.35
926,1640-4-1,Aursunden,26776,11.4623391945095,62.678543556959,blr,62511010,1978-1982,135.6,165.72,301.32,344.34
927,1648-1-3,Brekkesetertj.,26777,10.1437885643501,63.0320680800897,blr,63010013,1978-1982,123.26,154.48000000000002,277.74,310.75
928,1648-1-11,Vardetjørna,26778,10.0421931189945,62.9789867838319,blr,62510001,1978-1982,145.46,180.50000000000003,325.96000000000004,363.86
929,1648-2-15,Langvatnet,26779,10.0552010012861,62.9260560735634,blr,62510001,1978-1982,145.46,180.50000000000003,325.96000000000004,363.86
930,1653-2-10,Krokuttjørna,26780,10.0603107270519,63.0286520055503,blr,63010013,1978-1982,123.26,154.48000000000002,277.74,310.75
931,1653-3-10,Benna,26781,10.251722083708,63.1941166763067,blr,63010010,1978-1982,134.48,171.67999999999998,306.15999999999997,345.26
932,1657-3-9,Laugen,26782,10.0489294632992,63.2809257668109,blr,63010005,1978-1982,183.89,267.27,451.15999999999997,534.93
933,1702-1-6,Giskåstjørna,26783,11.8972752682006,64.0342306430133,blr,64011016,1978-1982,137.26,196.15999999999997,333.41999999999996,400.85
934,1702-1-17,Sandtjern,26784,11.5804872533633,64.2204339543994,blr,64011011,1978-1982,145.85,220.15,366.0,441.85
935,1702-2-17,Jenshusvatnet,26785,11.4395879069792,64.1726375106873,blr,64011010,1978-1982,116.37,177.33000000000004,293.70000000000005,354.8
936,1703-1-5,Fjellsettjørna,26786,11.5652596110031,64.3892806474069,blr,64011003,1978-1982,178.83,293.65999999999997,472.49,556.7
937,1703-2-1,Gravvatnet,26787,11.7224329095,64.6019264529533,blr,64511015,1978-1982,151.51,251.87,403.38,473.55
938,1711-3-8,Fundsjøen,26788,11.7872840883794,63.4792518439808,blr,63011004,1978-1982,228.81,346.0299999999999,574.8399999999999,640.37
939,1711-4-2,Fjergen,26789,11.9108434807417,63.4334207053564,blr,63011004,1978-1982,228.81,346.0299999999999,574.8399999999999,640.37
940,1717-2-6,Liavatnet,26790,10.7657055674392,63.5925003714288,blr,63510016,1978-1982,162.67,234.72,397.39,478.69
941,1718-1-8,Ø. Ljøsvatn,26791,10.4811366694874,63.6738029061305,blr,63510010,1978-1982,216.56,325.14000000000004,541.7,646.5
942,1718-1-9,Svarttjønn,26792,10.7989207618514,63.7348681061069,blr,63510012,1978-1982,162.57,244.90000000000003,407.47,495.05
943,1718-1-10,Storskartjørna,26793,10.7381132116536,63.7162241028824,blr,63510011,1978-1982,145.14,219.69,364.83,436.94
944,1718-1-15,Aunbyvatn,26794,10.4164364432715,63.6661782824759,blr,63510010,1978-1982,216.56,325.14000000000004,541.7,646.5
945,1721-2-13,Søre Vassdalstjørna,26795,12.2940850652757,63.7354282083581,blr,63512010,1978-1982,141.07,197.71999999999997,338.78999999999996,410.21
946,1721-3-15,Storbellingen,26796,12.2786984714779,63.6982980896914,blr,63512010,1978-1982,141.07,197.71999999999997,338.78999999999996,410.21
947,1723-2-5,Røsvatnet,26797,10.8466356935401,63.8541025123846,blr,63510008,1978-1982,146.02,221.63999999999996,367.65999999999997,450.2
948,1724-2-22,Bogatjørna,26798,10.5711483294577,63.854027617,blr,63510007,1978-1982,179.24,278.45,457.69,550.71
949,1725-1-20,Øvre Steintjørna,26799,11.1135128429274,64.3057316543725,blr,64011005,1978-1982,117.36,182.56,299.92,362.79
950,1725-2-18,Øver-Kallhammarvatnet,26800,11.1411215659469,64.3251978097699,blr,64011005,1978-1982,117.36,182.56,299.92,362.79
951,1725-2-21,Sæterlangvatnet,26801,11.0399457918178,64.3050336173114,blr,64011005,1978-1982,117.36,182.56,299.92,362.79
952,1736-1-22,Fiskløysa,26802,12.4211794210006,64.0553250839381,blr,64012014,1978-1982,197.51,299.07,496.58,579.96
953,1736-1-27,HOH 617,26803,13.1608722816679,64.1992747578672,blr,64013009,1978-1982,124.57,192.02000000000004,316.59000000000003,387.01
954,1736-2-15,Hattjørna,26804,12.4606375793273,64.004881965352,blr,64012014,1978-1982,197.51,299.07,496.58,579.96
955,1736-5-1,Snåsavatnet,26805,11.6354827484714,64.082347625791,blr,64011015,1978-1982,141.15,210.6,351.75,424.67
956,1738-1-19,Grønlitjørna,26806,13.8449808517171,64.3075992201062,blr,64013008,1978-1982,120.88,184.33000000000004,305.21000000000004,375.03
957,1738-1-21,Storolatjørnin,26807,13.4476244752851,64.413231892213,blr,64013002,1978-1982,71.1,113.79999999999998,184.89999999999998,220.58
958,1738-2-12,Koitjørna,26808,13.7007829256892,64.3373367473076,blr,64013007,1978-1982,129.67,196.69000000000003,326.36,402.22
959,1738-3-6,Store Strivatnet,26809,13.9812080478774,64.2415970486673,blr,64013012,1978-1982,116.26,176.28000000000003,292.54,360.69
960,1738-3-7,Djupvatnet,26810,13.56223411735,64.4217897866122,blr,64013003,1978-1982,112.59,182.42999999999998,295.02,350.04
961,1738-3-13,Langvatnet,26811,13.7555978047832,64.0726322219573,blr,64013016,1978-1982,112.92,170.61,283.53000000000003,350.31
962,1738-4-1,Rengen,26812,13.897386095701,64.1343587028572,blr,64013012,1978-1982,116.26,176.28000000000003,292.54,360.69
963,1739-1-12,HOH 654,26813,13.3593758688884,64.8750305222228,blr,64513006,1978-1982,138.85,228.18999999999997,367.03999999999996,432.9
964,1739-1-18,Laagkoenjuenientjonne,26814,13.7407870985953,64.8543466926291,blr,64513007,1978-1982,138.85,228.18999999999997,367.03999999999996,432.9
965,1739-1-28,Okstjørna,26815,13.5606033080038,64.8458706068515,blr,64513007,1978-1982,138.85,228.18999999999997,367.03999999999996,432.9
966,1739-2-4,HOH 886,26816,14.0290191869116,64.9526497014281,blr,64514001,1978-1982,106.1,169.14000000000001,275.24,319.5
967,1739-2-14,Måarenjaevrieh,26817,13.8958333224417,64.9685258695578,blr,64513004,1978-1982,136.63,219.88,356.51,407.34
968,1739-2-19,Øvre Blåmurtjørnin,26818,13.1690534340096,64.5374569135829,blr,64513013,1978-1982,86.53,141.98,228.51,269.83
969,1739-3-3,Vestre Rekaren,26819,13.6456202479533,65.0507525434842,blr,65013015,1978-1982,155.9,254.92,410.82,468.24
970,1739-5-1,Tunnsjøen,26820,13.2165381731264,64.6902456270979,blr,64513009,1978-1982,122.37,200.77999999999997,323.15,381.47
971,1740-2-9,Storskorovatn,26821,13.0568309569618,64.6484024655416,blr,64513009,1978-1982,122.37,200.77999999999997,323.15,381.47
972,1740-2-10,Krokvatnet,26822,13.0197500686911,65.0543964406979,blr,65013013,1978-1982,149.35,244.02,393.37,451.12
973,1740-2-39,Grøndalsvatnet,26823,12.9583949544192,64.6208931792154,blr,64512016,1978-1982,118.02,193.63,311.65,367.9
974,1742-1-1,Liatjørnin,26824,12.2517450871505,64.3579505440013,blr,64012006,1978-1982,129.69,219.36,349.05,382.1
975,1742-1-7,HOH 824,26825,12.9532324784845,64.519733595181,blr,64512016,1978-1982,118.02,193.63,311.65,367.9
976,1742-1-24,Røyrtjørna,26826,12.4560873105557,64.5828549692525,blr,64512014,1978-1982,186.9,303.37,490.27,548.5
977,1748-3-5,Kvernvikvatnet,26827,11.5244740734765,64.7344739367197,blr,64511011,1978-1982,142.17,236.23,378.4,446.97
978,1749-1-25,Erlandvatnet,26828,10.8049856306388,64.4528891584818,blr,64010004,1978-1982,146.76,228.68,375.44,456.92
979,1749-3-12,Mjosundvatnet,26829,10.9739189934022,64.5862218051575,blr,64510016,1978-1982,136.89,214.85000000000002,351.74,427.24
980,1751-1-4,Reinbærlivatnet,26830,12.2628432448927,64.9079661854731,blr,64512002,1978-1982,159.85,268.94999999999993,428.79999999999995,488.88
981,1751-1-13,Sætertjørna,26831,12.1157860564024,64.902754859165,blr,64512001,1978-1982,187.67,314.21000000000004,501.88,574.87
982,1751-1-23,Langvatn,26832,11.9657737187791,64.8704510165833,blr,64511008,1978-1982,180.85,299.26,480.11,560.54
983,1751-2-2,Småholmvatnet,26833,11.6287786774974,64.7265149241136,blr,64511011,1978-1982,142.17,236.23,378.4,446.97
984,1751-2-7,Vasslivatnet,26834,11.7132261886122,64.9909840067735,blr,64511003,1978-1982,147.79,248.12999999999997,395.91999999999996,469.34
985,1804-3-17,Sørvatnet,26835,14.7601969643424,67.4825041763917,blr,67014004,1978-1982,138.54,212.55000000000004,351.09000000000003,502.37
986,1805-1-7,Vestfjordvatnan,26836,17.7221417091185,68.4124428188205,blr,68017003,1978-1982,97.44,119.67000000000002,217.11,366.03
987,1805-1-14,Søsterbekkvatnan,26837,17.9477915733429,68.4362887118641,blr,68017004,1978-1982,130.21,156.75000000000003,286.96000000000004,488.52
988,1805-3-4,Storvatnet,26838,17.4277154582448,68.3687960065641,blr,68017006,1978-1982,107.15,133.46,240.61,402.62
989,1811-3-6,Myrmarkvatnet,26839,12.4137212202475,65.2830522189959,blr,65012006,1978-1982,214.92,353.5,568.42,661.5
990,1812-1-12,Gjerdevatnet,26840,12.2210891909285,65.3031057392877,blr,65012005,1978-1982,181.77,298.43000000000006,480.20000000000005,563.86
991,1813-2-5,Tilremsvatnet,26841,12.264743767934,65.5133516940634,blr,65512014,1978-1982,164.69,271.75,436.44,506.12
992,1820-1-20,Helknavatnet,26842,12.5260326084014,65.9261835156014,blr,65512003,1978-1982,143.77,233.74999999999997,377.52,454.23
993,1824-1-3,HOH 864,26843,13.358845513597,66.1142500558375,blr,66013014,1978-1982,168.47,281.79999999999995,450.27,528.78
994,1824-1-6,HOH 821,26844,13.4073330596489,66.1233153717642,blr,66013014,1978-1982,168.47,281.79999999999995,450.27,528.78
995,1824-1-17,Kottjørna,26845,13.73145512286,65.8326924318303,blr,65513007,1978-1982,138.95,234.83999999999997,373.78999999999996,437.92
996,1824-2-25,HOH 444,26846,12.9559189689194,65.6909450060203,blr,65512012,1978-1982,192.05,315.01,507.06,584.57
997,1825-1-5,Sørtjørna,26847,13.5405651098488,65.3540697451819,blr,65013007,1978-1982,156.64,258.95,415.59,474.96
998,1825-2-23,Litle Holmvatnet,26848,13.2435576213827,65.2528072014412,blr,65013005,1978-1982,144.95,235.39,380.34,435.83
999,1825-4-4,Store Majavatnet,26849,13.3108366232067,65.1942433382511,blr,65013010,1978-1982,125.49,205.57999999999998,331.07,375.73
1000,1826-1-8,HOH 785,26850,14.5197646567947,65.6613768547636,blr,65514011,1978-1982,126.02,207.08000000000004,333.1,392.01
1001,1826-1-10,HOH 822,26851,13.8609038753352,65.1715302702254,blr,65013012,1978-1982,115.16,185.13999999999996,300.29999999999995,344.85
1002,1826-3-24,Fisklausvatnet,26852,14.2985349034178,65.3961614578477,blr,65014002,1978-1982,93.22,152.56,245.78,285.37
1003,1826-4-3,Unkervatnet,26853,14.1377732248434,65.5138612962238,blr,65514013,1978-1982,117.14,195.26,312.4,358.7
1004,1826-5-1,Røssvatnet,26854,13.7937972150216,65.8579312648221,blr,65513008,1978-1982,156.2,258.87,415.07,477.97
1005,1833-1-13,HOH 752,26855,15.0991457374158,66.3676996127861,blr,66015005,1978-1982,87.91,135.41,223.32,293.22
1006,1833-1-15,Steinbekktjørna,26856,14.3742119429199,66.3257618847568,blr,66014006,1978-1982,143.4,232.33,375.73,467.63
1007,1833-1-19,HOH 1034,26857,15.0935476854823,66.5143230590271,blr,66515013,1978-1982,85.72,132.02,217.74,285.88
1008,1833-3-1,Store Blerekvatnet,26858,15.0906663432358,66.3458823730195,blr,66015005,1978-1982,87.91,135.41,223.32,293.22
1009,1836-1-21,HOH 662,26859,13.6874342890175,66.6621363693916,blr,66513011,1978-1982,173.25,292.95,466.2,617.49
1010,1836-2-14,Storvatnet,26860,13.2212401497243,66.6544289042241,blr,66513010,1978-1982,191.03,319.72,510.75,681.59
1011,1836-3-2,Gjervalvatnet,26861,13.4665500939321,66.4791390856986,blr,66013002,1978-1982,130.73,220.53,351.26,458.17
1012,1837-3-3,Spilderdalsvatnet,26862,13.8272816926993,66.871511221014,blr,66513008,1978-1982,179.91,302.11,482.02,662.58
1013,1840-1-1,HOH 757,26863,15.8168823851635,67.0583601612097,blr,67015016,1978-1982,203.27,296.26,499.53,750.54
1014,1840-1-4,HOH 725,26864,15.6445406830566,67.0520790283467,blr,67015015,1978-1982,145.1,212.43999999999997,357.53999999999996,536.52
1015,1840-3-7,Solvågvatnet,26865,15.5103506137522,66.8463585680788,blr,66515007,1978-1982,102.65,158.23,260.88,355.7
1016,1841-1-18,HOH 938,26866,16.2751464516418,67.0539787411134,blr,67016014,1978-1982,200.72,292.4599999999999,493.17999999999995,741.22
1017,1842-2-6,HOH 162,26867,14.9824599551135,67.0840773335076,blr,67014016,1978-1982,155.77,240.62999999999997,396.4,559.74
1018,1842-2-7,Storoksvatnet,26868,15.0421718373751,66.9456488191857,blr,66515001,1978-1982,100.89,155.73000000000002,256.62,352.5
1019,1842-3-14,HOH 472,26869,14.830890520609,67.1207136197305,blr,67014016,1978-1982,155.77,240.62999999999997,396.4,559.74
1020,1845-2-2,Hurrejavrrazat,26870,16.3429194717959,67.5492953998517,blr,67516014,1978-1982,160.06,218.17000000000002,378.23,591.15
1021,1845-2-21,HOH 903,26871,16.0505380640778,67.4319144674514,blr,67016001,1978-1982,169.0,245.14,414.14,625.21
1022,1848-2-4,Synstelvvatn,26872,14.8959114320459,67.6945139838751,blr,67514012,1978-1982,114.83,171.76,286.59,419.59
1023,1848-2-10,HOH 281,26873,15.5609589233668,67.8125623065342,blr,67515007,1978-1982,107.94,153.97999999999996,261.91999999999996,410.85
1024,1848-2-15,Breiddalsvatnan,26874,15.2579649748142,67.8671490833679,blr,67515006,1978-1982,137.65,201.03,338.68,542.9
1025,1849-2-3,Lilandsvatn,26875,15.515900148621,68.0712724592155,blr,68015015,1978-1982,86.89,129.11,216.0,346.9
1026,1849-2-18,HOH 760,26876,16.3402833981017,67.7208247686912,blr,67516010,1978-1982,157.6,202.68999999999997,360.28999999999996,587.69
1027,1849-3-18,Sandnesvatnet,26877,15.9258756154526,67.8614833847174,blr,67515008,1978-1982,127.81,182.58999999999997,310.4,485.51
1028,1850-2-12,HOH 880,26878,16.9542683475394,67.9983024309403,blr,67516004,1978-1982,122.71,158.89,281.59999999999997,449.63
1029,1850-2-19,Storvatnet,26879,16.5618132727698,67.9675206032281,blr,67516003,1978-1982,171.46,220.52,391.98,639.23
1030,1850-3-11,Hievstenjavri,26880,16.5412580488845,67.7692426770551,blr,67516007,1978-1982,167.43,215.32999999999998,382.76,624.26
1031,1853-3-13,Lavangsvatn,26881,16.6572857099881,68.4857891599546,blr,68016003,1978-1982,143.79,184.67,328.46,535.88
1032,1854-2-16,Stopålvatnet,26882,16.5855055308686,68.3635602754598,blr,68016007,1978-1982,153.24,196.68,349.92,570.76
1033,1866-1-2,Ulvøyvatn,26883,15.0286981701036,68.3550304637343,blr,68015005,1978-1982,195.33,269.36,464.69000000000005,778.26
1034,1866-1-11,Austpollvatnan,26884,14.9064105843659,68.3864040933184,blr,68014004,1978-1982,166.04,214.66,380.7,640.24
1035,1870-2-1,Langvatnet,26885,15.0498265311385,68.6643960341742,blr,68515009,1978-1982,151.26,202.64,353.9,593.81
1036,1870-2-20,Kjerringnesdalsvatn,26886,15.5343698268842,68.6618995841296,blr,68515011,1978-1982,127.55,161.66999999999996,289.21999999999997,485.92
1037,1871-3-22,Storvatnet,26887,15.9551466074222,69.2660090989417,blr,69015008,1978-1982,78.83,97.37999999999998,176.20999999999998,297.28
1038,1901-2-5,Botnvatn,26888,16.4012832997165,68.8310337914514,blr,68516006,1978-1982,121.51,151.54000000000002,273.05,458.32
1039,1902-2-11,Storvatnet,26889,18.5777923441065,69.7787546176706,blr,69518007,1978-1982,145.25,147.56,292.81,557.09
1040,1917-1-15,Juliusvatnet,26890,17.3328825092076,68.8519102207912,blr,68517006,1978-1982,150.93,169.37,320.3,576.15
1041,1917-3-4,Skipsvatnet,26891,16.9713170004432,68.7775019642108,blr,68516008,1978-1982,142.35,161.11000000000004,303.46000000000004,543.3
1042,1922-1-14,HOH 504,26892,19.7861200181109,68.4018990431031,blr,68019004,1978-1982,85.01,96.06999999999998,181.07999999999998,326.9
1043,1922-2-10,Dalbergvatnet,26893,18.608734248672,68.7074124097768,blr,68518011,1978-1982,99.4,110.87,210.27,364.96
1044,1924-1-2,Tømmertjørnet,26894,20.0788269628556,69.0110084339763,blr,69020013,1978-1982,85.37,80.03,165.4,306.17
1045,1924-1-4,HOH 1044,26895,19.8496941426884,68.9039309560334,blr,68519004,1978-1982,95.79,90.77999999999999,186.57,345.55
1046,1924-1-12,HOH 770,26896,20.0278298917213,68.8928416895392,blr,68520001,1978-1982,82.59,77.5,160.09,296.1
1047,1924-2-4,Sætervatnet,26897,18.9557535548249,68.8171052703571,blr,68518008,1978-1982,86.57,84.88,171.45,313.68
1048,1924-2-6,Fonnskardvatnet,26898,18.7234547937874,68.8853198646449,blr,68518003,1978-1982,125.24,135.57999999999998,260.82,480.82
1049,1926-1-10,Femvatnan,26899,17.8292647243998,69.0941507616809,blr,69017016,1978-1982,120.79,137.43,258.22,505.25
1050,1927-3-1,Kapervatnet,26900,17.4284599834921,69.2406970076258,blr,69017010,1978-1982,185.93,202.70999999999998,388.64,733.96
1051,1927-3-2,Storvatnet,26901,17.685141177071,69.1882583314477,blr,69017011,1978-1982,116.59,127.84,244.43,480.05
1052,1931-4-1,Finnfjordvatnet,26902,18.163689480284,69.2486348612027,blr,69018009,1978-1982,137.77,153.95000000000002,291.72,544.43
1053,1933-3-3,Sagelvvatnet,26903,19.1224763658223,69.2116617571891,blr,69019009,1978-1982,72.79,70.62000000000002,143.41000000000003,262.22
1054,1936-1-1,HOH 11,26904,19.9022421810886,70.1799589798852,blr,70019012,1978-1982,128.35,125.51000000000002,253.86,465.41
1055,1939-1-3,HOH 1045,26905,20.8868446782611,69.2416148680145,blr,69020012,1978-1982,79.31,78.00999999999999,157.32,288.92
1056,1939-1-9,Mallajavrrit,26906,20.3646503038438,69.0978056030201,blr,69020014,1978-1982,67.97,64.34,132.31,243.13
1057,1939-1-13,HOH 905,26907,20.5706172682014,69.1409247747058,blr,69020011,1978-1982,86.41,81.25,167.66,309.42
1058,1940-2-2,Vuoddojavrit,26908,21.1547258069387,69.501147642179,blr,69521013,1978-1982,85.84,82.18,168.02,311.18
1059,1940-3-6,Goddejavri,26909,20.9641959178169,69.3371137582742,blr,69020008,1978-1982,82.13,80.85,162.98,299.39
1060,1942-2-1,Doaresjavri,26910,21.1638599764345,69.4826622895431,blr,69021001,1978-1982,96.37,93.17000000000002,189.54000000000002,350.6
